{"type":"FeatureCollection","features":[{"type":"Feature","properties":{"amenity":"social_facility","social_facility":"outreach","social_facility:for":"disabled","website":"https://www.tkdanube.sk/index.php/sk/nic","name:pl":"N\u00e1rodn\u00e9 Integra\u010dn\u00e9 Centrum","name:uk":"N\u00e1rodn\u00e9 Integra\u010dn\u00e9 Centrum","name:en":"N\u00e1rodn\u00e9 Integra\u010dn\u00e9 Centrum"},"geometry":{"type":"Point","coordinates":[17.0449964,48.1833499]}},{"type":"Feature","properties":{"amenity":"social_facility","social_facility":"shelter","social_facility:for":"homeless","name:pl":"Domov sv. J\u00e1na z Boha","name:uk":"Domov sv. J\u00e1na z Boha","name:en":"Domov sv. J\u00e1na z Boha"},"geometry":{"type":"Point","coordinates":[17.1368855,48.1751368]}},{"type":"Feature","properties":{"amenity":"social_facility","branch":"Zbor Galanta","denomination":"salvation_army","religion":"christian","social_facility":"outreach","social_facility:for":"underprivileged","website":"http://www.armadaspasy.sk/?page_id=17","name:pl":"Arm\u00e1da sp\u00e1sy","name:uk":"Arm\u00e1da sp\u00e1sy","name:en":"Arm\u00e1da sp\u00e1sy"},"geometry":{"type":"Point","coordinates":[17.7180827,48.1879222]}},{"type":"Feature","properties":{"amenity":"social_facility","operator":"Organiz\u00e1cia soci\u00e1lnej starostlivosti","social_facility":"shelter","name:pl":"Kr\u00edzov\u00e9 centrum","name:uk":"Kr\u00edzov\u00e9 centrum","name:en":"Kr\u00edzov\u00e9 centrum"},"geometry":{"type":"Point","coordinates":[17.8694023,48.1557655]}},{"type":"Feature","properties":{"amenity":"social_facility","opening_hours":"Mo-Fr 07:00-15:00","social_facility":"outreach","social_facility:for":"child","website":"https://www.cpppapzm.sk/","name:pl":"Centrum pedagogicko-psychologick\u00e9ho poradenstva a prevencie","name:uk":"Centrum pedagogicko-psychologick\u00e9ho poradenstva a prevencie","name:en":"Centrum pedagogicko-psychologick\u00e9ho poradenstva a prevencie"},"geometry":{"type":"Point","coordinates":[18.3957369,48.3817752]}},{"type":"Feature","properties":{"amenity":"social_facility","social_facility":"outreach","social_facility:for":"underprivileged","website":"http://www.ispokojnost.sk/","name:pl":"Spokojnos\u0165","name:uk":"Spokojnos\u0165","name:en":"Spokojnos\u0165"},"geometry":{"type":"Point","coordinates":[18.6196033,48.7556525]}},{"type":"Feature","properties":{"amenity":"social_facility","social_facility":"outreach","name:pl":"Fyzio-reh","name:uk":"Fyzio-reh","name:en":"Fyzio-reh"},"geometry":{"type":"Point","coordinates":[19.304379,49.0776216]}},{"type":"Feature","properties":{"addr:city":"\u017dilina","addr:country":"SK","addr:housenumber":"3","addr:street":"Vysoko\u0161kol\u00e1kov","amenity":"social_facility","operator":"Slovensk\u00e1 katol\u00edcka charita","social_facility":"outreach","website":"https://www.charitaza.sk/","name:pl":"Diec\u00e9zna charita \u017dilina","name:uk":"Diec\u00e9zna charita \u017dilina","name:en":"Diec\u00e9zna charita \u017dilina"},"geometry":{"type":"Point","coordinates":[18.7450823,49.2161066]}},{"type":"Feature","properties":{"addr:city":"\u017dilina","addr:country":"SK","addr:housenumber":"27","addr:street":"Bratislavsk\u00e1","amenity":"social_facility","operator":"Slovensk\u00e1 katol\u00edcka charita","social_facility":"shelter","social_facility:for":"homeless","website":"https://www.charitaza.sk/dom-charity-sv-vincenta-zilina/","name:pl":"Dom charity sv. Vincenta","name:uk":"Dom charity sv. Vincenta","name:en":"Dom charity sv. Vincenta"},"geometry":{"type":"Point","coordinates":[18.7301348,49.2301155]}},{"type":"Feature","properties":{"addr:city":"Cieszyn","addr:housenumber":"4","addr:postcode":"43-400","addr:street":"Bielska","blood:whole":"yes","description":"Na terenie Szpitala \u015al\u0105skiego. Godziny otwarcia to godziny pracy rejestracji dla dawc\u00f3w.","email":"rejestracja@rckik-katowice.pl","healthcare":"blood_donation","opening_hours":"Mo 07:00-16:30; Tu-Fr 07:00-15:00; Th 07:00-17:30; Sa 08:00-13:00","operator":"Regionalne Centrum Krwiodawstwa i Krwiolecznictwa w Katowicach","phone":"+48 33 851 43 63","website":"https://rckik-katowice.pl/","name:pl":"RCKiK w Katowicach OT Cieszyn","name:uk":"RCKiK w Katowicach OT Cieszyn","name:en":"RCKiK w Katowicach OT Cieszyn"},"geometry":{"type":"Point","coordinates":[18.6410392,49.7449511]}},{"type":"Feature","properties":{"addr:city":"Bielsko-Bia\u0142a","addr:housenumber":"21","addr:postcode":"43-300","addr:street":"Wyspia\u0144skiego","blood:whole":"yes","description":"Na terenie Beskidzkiego Centrum Onkologii Szpital Miejski im. Jana Paw\u0142a II. Mo\u017cliwo\u015b\u0107 wej\u015bcia od ul. Grunwaldzkiej, wej\u015bcie naprzeciwko cmentarza. Godziny otwarcia to godziny pracy rejestracji dla dawc\u00f3w.","email":"rejestracja@rckik-katowice.pl","healthcare":"blood_donation","opening_hours":"Mo-Fr 07:00-14:00","operator":"Regionalne Centrum Krwiodawstwa i Krwiolecznictwa w Katowicach","phone":"+48 33 812 21 90","website":"https://rckik-katowice.pl/","name:pl":"RCKiK w Katowicach OT Bielsko-Bia\u0142a","name:uk":"RCKiK w Katowicach OT Bielsko-Bia\u0142a","name:en":"RCKiK w Katowicach OT Bielsko-Bia\u0142a"},"geometry":{"type":"Point","coordinates":[19.033788,49.8222733]}},{"type":"Feature","properties":{"addr:city":"34-500","addr:housenumber":"14","addr:postcode":"Zakopane","addr:street":"Szymony","blood:whole":"yes","description":"Budynek Urz\u0119du Skarbowego. Godziny otwarcia to godziny pracy rejestracji dla dawc\u00f3w.","email":"ot811@rckik.krakow.pl","healthcare":"blood_donation","opening_hours":"Mo-Fr 07:30-12:00","operator":"Regionalne Centrum Krwiodawstwa i Krwiolecznictwa w Krakowie","phone":"+48 18 201 27 27","website":"https://rckik.krakow.pl/oddzialy-terenowe/","name:pl":"RCKiK w Krakowie TO Zakopane","name:uk":"\u041c\u0456\u0441\u0446\u0435\u0432\u0435 \u0412\u0456\u0434\u0434\u0456\u043b\u0435\u043d\u043d\u044f \u0420\u0435\u0433\u0456\u043e\u043d\u0430\u043b\u044c\u043d\u043e\u0457 \u0421\u0442\u0430\u043d\u0446\u0456\u0457 \u041f\u0435\u0440\u0435\u043b\u0438\u0432\u0430\u043d\u043d\u044f \u0442\u0430 \u041b\u0456\u043a\u0443\u0432\u0430\u043d\u043d\u044f \u043a\u0440\u043e\u0432\u0456 \u0417\u0430\u043a\u043e\u043f\u0430\u043d\u0435","name:en":"RCKiK w Krakowie TO Zakopane"},"geometry":{"type":"Point","coordinates":[19.9631603,49.3045657]}},{"type":"Feature","properties":{"addr:city":"34-400","addr:housenumber":"12","addr:postcode":"Nowy Targ","addr:street":"Szpitalna","blood:whole":"yes","description":"Godziny otwarcia to godziny pracy rejestracji dla dawc\u00f3w.","email":"ot815@rckik.krakow.pl","healthcare":"blood_donation","opening_hours":"Mo-Fr 07:15-12:30","operator":"Regionalne Centrum Krwiodawstwa i Krwiolecznictwa w Krakowie","phone":"+48 18 266 45 27","website":"https://rckik.krakow.pl/oddzialy-terenowe/","name:pl":"RCKiK w Krakowie TO Nowy Targ","name:uk":"\u041c\u0456\u0441\u0446\u0435\u0432\u0435 \u0412\u0456\u0434\u0434\u0456\u043b\u0435\u043d\u043d\u044f \u0420\u0435\u0433\u0456\u043e\u043d\u0430\u043b\u044c\u043d\u043e\u0457 \u0421\u0442\u0430\u043d\u0446\u0456\u0457 \u041f\u0435\u0440\u0435\u043b\u0438\u0432\u0430\u043d\u043d\u044f \u0442\u0430 \u041b\u0456\u043a\u0443\u0432\u0430\u043d\u043d\u044f \u043a\u0440\u043e\u0432\u0456 \u041d\u043e\u0432\u0438\u0439 \u0422\u0430\u0440\u0433","name:en":"RCKiK w Krakowie TO Nowy Targ"},"geometry":{"type":"Point","coordinates":[20.0273987,49.4898694]}},{"type":"Feature","properties":{"addr:city":"34-100","addr:housenumber":"5","addr:postcode":"Wadowice","addr:street":"Karmelicka","blood:plasma":"no","blood:platelets":"no","blood:stemcells":"no","blood:whole":"yes","description":"Godziny otwarcia to godziny pracy rejestracji dla dawc\u00f3w.","email":"ot830@rckik.krakow.pl","healthcare":"blood_donation","opening_hours":"Mo-Fr 07:30-11:30","operator":"Regionalne Centrum Krwiodawstwa i Krwiolecznictwa w Krakowie","phone":"+48 33 873 29 56","website":"https://rckik.krakow.pl/oddzialy-terenowe/","name:pl":"RCKiK w Krakowie TO Wadowice","name:uk":"\u041c\u0456\u0441\u0446\u0435\u0432\u0435 \u0412\u0456\u0434\u0434\u0456\u043b\u0435\u043d\u043d\u044f \u0420\u0435\u0433\u0456\u043e\u043d\u0430\u043b\u044c\u043d\u043e\u0457 \u0421\u0442\u0430\u043d\u0446\u0456\u0457 \u041f\u0435\u0440\u0435\u043b\u0438\u0432\u0430\u043d\u043d\u044f \u0442\u0430 \u041b\u0456\u043a\u0443\u0432\u0430\u043d\u043d\u044f \u043a\u0440\u043e\u0432\u0456 \u0412\u0430\u0434\u043e\u0432\u0438\u0446\u0456","name:en":"RCKiK w Krakowie TO Wadowice"},"geometry":{"type":"Point","coordinates":[19.4918126,49.880858]}},{"type":"Feature","properties":{"addr:city":"34-200","addr:housenumber":"22","addr:postcode":"Sucha Beskidzka","addr:street":"Szpitalna","blood:whole":"yes","description":"Godziny otwarcia to godziny pracy rejestracji dla dawc\u00f3w.","email":"ot829@rckik.krakow.pl","healthcare":"blood_donation","opening_hours":"Mo-Fr 07:30-11:00","operator":"Regionalne Centrum Krwiodawstwa i Krwiolecznictwa w Krakowie","phone":"+48 33 872 32 99","website":"https://rckik.krakow.pl/oddzialy-terenowe/","name:pl":"RCKiK w Krakowie TO Sucha Beskidzka","name:uk":"\u041c\u0456\u0441\u0446\u0435\u0432\u0435 \u0412\u0456\u0434\u0434\u0456\u043b\u0435\u043d\u043d\u044f \u0420\u0435\u0433\u0456\u043e\u043d\u0430\u043b\u044c\u043d\u043e\u0457 \u0421\u0442\u0430\u043d\u0446\u0456\u0457 \u041f\u0435\u0440\u0435\u043b\u0438\u0432\u0430\u043d\u043d\u044f \u0442\u0430 \u041b\u0456\u043a\u0443\u0432\u0430\u043d\u043d\u044f \u043a\u0440\u043e\u0432\u0456 \u0421\u0443\u0445\u0430-\u0411\u0435\u0441\u043a\u0438\u0434\u0437\u044c\u043a\u0430","name:en":"RCKiK w Krakowie TO Sucha Beskidzka"},"geometry":{"type":"Point","coordinates":[19.604864,49.7369002]}},{"type":"Feature","properties":{"addr:city":"32-400","addr:housenumber":"2","addr:postcode":"My\u015blenice","addr:street":"Szpitalna","blood:whole":"yes","description":"Godziny otwarcia to godziny pracy rejestracji dla dawc\u00f3w.","email":"ot809@rckik.krakow.pl","healthcare":"blood_donation","opening_hours":"Mo-Fr 07:30-13:00","operator":"Regionalne Centrum Krwiodawstwa i Krwiolecznictwa w Krakowie","phone":"+48 12 273 02 20","website":"https://rckik.krakow.pl/oddzialy-terenowe/","name:pl":"RCKiK w Krakowie TO My\u015blenice","name:uk":"\u041c\u0456\u0441\u0446\u0435\u0432\u0435 \u0412\u0456\u0434\u0434\u0456\u043b\u0435\u043d\u043d\u044f \u0420\u0435\u0433\u0456\u043e\u043d\u0430\u043b\u044c\u043d\u043e\u0457 \u0421\u0442\u0430\u043d\u0446\u0456\u0457 \u041f\u0435\u0440\u0435\u043b\u0438\u0432\u0430\u043d\u043d\u044f \u0442\u0430 \u041b\u0456\u043a\u0443\u0432\u0430\u043d\u043d\u044f \u043a\u0440\u043e\u0432\u0456 \u041c\u0438\u0448\u043b\u0435\u043d\u0438\u0446\u0456","name:en":"RCKiK w Krakowie TO My\u015blenice"},"geometry":{"type":"Point","coordinates":[19.9463732,49.8293301]}},{"type":"Feature","properties":{"amenity":"social_facility","email":"adch-ke@charita-ke.sk","phone":"+421 910 842 576","social_facility":"outreach","website":"https://www.charita-ke.sk/","name:pl":"Arcidiec\u00e9zna charita","name:uk":"Arcidiec\u00e9zna charita","name:en":"Arcidiec\u00e9zna charita"},"geometry":{"type":"Point","coordinates":[21.2613474,48.7283611]}},{"type":"Feature","properties":{"addr:city":"34-600","addr:housenumber":"61","addr:postcode":"Limanowa","addr:street":"Pi\u0142sudskiego","blood:whole":"yes","description":"Godziny otwarcia to godziny pracy rejestracji dla dawc\u00f3w.","email":"ot814@rckik.krakow.pl","healthcare":"blood_donation","opening_hours":"Mo-Fr 07:30-13:00","operator":"Regionalne Centrum Krwiodawstwa i Krwiolecznictwa w Krakowie","phone":"+48 18 337 10 43","website":"https://rckik.krakow.pl/oddzialy-terenowe/","name:pl":"RCKiK w Krakowie TO Limanowa","name:uk":"\u041c\u0456\u0441\u0446\u0435\u0432\u0435 \u0412\u0456\u0434\u0434\u0456\u043b\u0435\u043d\u043d\u044f \u0420\u0435\u0433\u0456\u043e\u043d\u0430\u043b\u044c\u043d\u043e\u0457 \u0421\u0442\u0430\u043d\u0446\u0456\u0457 \u041f\u0435\u0440\u0435\u043b\u0438\u0432\u0430\u043d\u043d\u044f \u0442\u0430 \u041b\u0456\u043a\u0443\u0432\u0430\u043d\u043d\u044f \u043a\u0440\u043e\u0432\u0456 \u041b\u0456\u043c\u0430\u043d\u043e\u0432\u0430","name:en":"RCKiK w Krakowie TO Limanowa"},"geometry":{"type":"Point","coordinates":[20.4132869,49.716284]}},{"type":"Feature","properties":{"addr:city":"33-300","addr:housenumber":"1","addr:postcode":"Nowy S\u0105cz - Biegonice","addr:street":"Zak\u0142adnik\u00f3w","blood:whole":"yes","description":"Budynek OSP Biegonice. Godziny otwarcia to godziny pracy rejestracji dla dawc\u00f3w.","email":"ot810@rckik.krakow.pl","healthcare":"blood_donation","opening_hours":"Mo-Fr 07:00-12:00","operator":"Regionalne Centrum Krwiodawstwa i Krwiolecznictwa w Krakowie","phone":"+48 18 442 05 07","website":"https://rckik.krakow.pl/oddzialy-terenowe/","name:pl":"RCKiK w Krakowie TO Nowy S\u0105cz","name:uk":"\u041c\u0456\u0441\u0446\u0435\u0432\u0435 \u0412\u0456\u0434\u0434\u0456\u043b\u0435\u043d\u043d\u044f \u0420\u0435\u0433\u0456\u043e\u043d\u0430\u043b\u044c\u043d\u043e\u0457 \u0421\u0442\u0430\u043d\u0446\u0456\u0457 \u041f\u0435\u0440\u0435\u043b\u0438\u0432\u0430\u043d\u043d\u044f \u0442\u0430 \u041b\u0456\u043a\u0443\u0432\u0430\u043d\u043d\u044f \u043a\u0440\u043e\u0432\u0456 \u041d\u043e\u0432\u0438\u0439 \u0421\u043e\u043d\u0447","name:en":"RCKiK w Krakowie TO Nowy S\u0105cz"},"geometry":{"type":"Point","coordinates":[20.6720518,49.5826393]}},{"type":"Feature","properties":{"addr:housenumber":"60","addr:place":"Ja\u015bliska","addr:postcode":"38-525","amenity":"pharmacy","name:pl":"","name:uk":"","name:en":""},"geometry":{"type":"Point","coordinates":[21.8032335,49.4410001]}},{"type":"Feature","properties":{"addr:city":"38-300","addr:housenumber":"21","addr:postcode":"Golrlice","addr:street":"W\u0119gierska","blood:whole":"yes","description":"Godziny otwarcia to godziny pracy rejestracji dla dawc\u00f3w.","email":"ot812@rckik.krakow.pl","healthcare":"blood_donation","opening_hours":"Mo-Fr 07:00-12:00","operator":"Regionalne Centrum Krwiodawstwa i Krwiolecznictwa w Krakowie","phone":"+48 18 352 68 16","website":"https://rckik.krakow.pl/oddzialy-terenowe/","name:pl":"RCKiK w Krakowie TO Gorlice","name:uk":"\u041c\u0456\u0441\u0446\u0435\u0432\u0435 \u0412\u0456\u0434\u0434\u0456\u043b\u0435\u043d\u043d\u044f \u0420\u0435\u0433\u0456\u043e\u043d\u0430\u043b\u044c\u043d\u043e\u0457 \u0421\u0442\u0430\u043d\u0446\u0456\u0457 \u041f\u0435\u0440\u0435\u043b\u0438\u0432\u0430\u043d\u043d\u044f \u0442\u0430 \u041b\u0456\u043a\u0443\u0432\u0430\u043d\u043d\u044f \u043a\u0440\u043e\u0432\u0456 \u0413\u043e\u0440\u043b\u0438\u0446\u0456","name:en":"RCKiK w Krakowie TO Gorlice"},"geometry":{"type":"Point","coordinates":[21.1626846,49.6507027]}},{"type":"Feature","properties":{"addr:city":"Jod\u0142owa","amenity":"pharmacy","name:pl":"Apteka w Jod\u0142owej","name:uk":"Apteka w Jod\u0142owej","name:en":"Apteka w Jod\u0142owej"},"geometry":{"type":"Point","coordinates":[21.3032585,49.8761955]}},{"type":"Feature","properties":{"amenity":"pharmacy","level":"0","name:pl":"DOZ","name:uk":"DOZ","name:en":"DOZ"},"geometry":{"type":"Point","coordinates":[21.3053159,49.8771547]}},{"type":"Feature","properties":{"amenity":"pharmacy","level":"0","opening_hours":"Mo-Fr 08:00-17:00; Sa 08:00-12:00; PH off","name:pl":"Arnika","name:uk":"Arnika","name:en":"Arnika"},"geometry":{"type":"Point","coordinates":[21.3046315,49.8774476]}},{"type":"Feature","properties":{"amenity":"pharmacy","name:pl":"Punkt apteczny","name:uk":"Punkt apteczny","name:en":"Punkt apteczny"},"geometry":{"type":"Point","coordinates":[21.4999091,49.510985]}},{"type":"Feature","properties":{"amenity":"pharmacy","name:pl":"Punk Apteczny Arnika","name:uk":"Punk Apteczny Arnika","name:en":"Punk Apteczny Arnika"},"geometry":{"type":"Point","coordinates":[21.5235694,49.6049049]}},{"type":"Feature","properties":{"amenity":"pharmacy","name:pl":"","name:uk":"","name:en":""},"geometry":{"type":"Point","coordinates":[21.5255496,49.6069422]}},{"type":"Feature","properties":{"amenity":"pharmacy","dispensing":"yes","healthcare":"pharmacy","name:pl":"","name:uk":"","name:en":""},"geometry":{"type":"Point","coordinates":[21.4637363,49.6828606]}},{"type":"Feature","properties":{"amenity":"bus_station","wheelchair":"yes","name:pl":"Chyrowa d\u00f3\u0142","name:uk":"\u041d\u0438\u0437 \u0413\u0438\u0440\u043e\u0432\u0430","name:en":"Chyrowa d\u00f3\u0142"},"geometry":{"type":"Point","coordinates":[21.61585,49.5368523]}},{"type":"Feature","properties":{"addr:city":"Dukla","addr:housenumber":"1","addr:postcode":"38-450","addr:street":"\u015bw. Jana z Dukli","amenity":"pharmacy","opening_hours":"Mo-Fr 07:30-18:30; Sa 08:00-14:00","name:pl":"Urtica","name:uk":"Urtica","name:en":"Urtica"},"geometry":{"type":"Point","coordinates":[21.6824654,49.5549217]}},{"type":"Feature","properties":{"amenity":"bus_station","created_by":"JOSM","wheelchair":"yes","name:pl":"PKS Dukla","name:uk":"\u0410\u0432\u0442\u043e\u0432\u043e\u043a\u0437\u0430\u043b \u0414\u0443\u043a\u043b\u0430","name:en":"PKS Dukla"},"geometry":{"type":"Point","coordinates":[21.6828012,49.5548491]}},{"type":"Feature","properties":{"addr:city":"Dukla","addr:housenumber":"17","addr:postcode":"38-450","addr:street":"Rynek","amenity":"pharmacy","opening_hours":"Mo-Fr 07:30-19:00; Sa 08:00-15:00","phone":"+48134330415","name:pl":"Herbikus","name:uk":"Herbikus","name:en":"Herbikus"},"geometry":{"type":"Point","coordinates":[21.6839242,49.5548441]}},{"type":"Feature","properties":{"addr:city":"Dukla","addr:housenumber":"11","addr:postcode":"38-450","addr:street":"S\u0142owacka","amenity":"pharmacy","drive_through":"no","opening_hours":"Mo-Fr 08:00-22:00; Sa-Su 09:00-20:00","website":"http://www.dukla-viva.pl","name:pl":"Apteka Viva","name:uk":"Apteka Viva","name:en":"Apteka Viva"},"geometry":{"type":"Point","coordinates":[21.6815663,49.5528812]}},{"type":"Feature","properties":{"addr:city":"Dukla","addr:housenumber":"2","addr:postcode":"38-450","addr:street":"\u015bw. Jana z Dukli","amenity":"pharmacy","name:pl":"Avena","name:uk":"Avena","name:en":"Avena"},"geometry":{"type":"Point","coordinates":[21.6822664,49.5551717]}},{"type":"Feature","properties":{"addr:city":"Dukla","addr:housenumber":"1","addr:postcode":"38-450","addr:street":"\u017bwirki i Wigury","amenity":"pharmacy","dispensing":"yes","healthcare":"pharmacy","opening_hours":"Mo-Fr 08:00-19:00; Sa 08:00-15:00","name:pl":"Przy Trakcie","name:uk":"Przy Trakcie","name:en":"Przy Trakcie"},"geometry":{"type":"Point","coordinates":[21.6829482,49.5571707]}},{"type":"Feature","properties":{"addr:housenumber":"313","addr:place":"Kobylany","addr:postcode":"38-462","amenity":"pharmacy","name:pl":"","name:uk":"","name:en":""},"geometry":{"type":"Point","coordinates":[21.6472165,49.6093137]}},{"type":"Feature","properties":{"addr:housenumber":"83","addr:place":"\u0141\u0119ki Dukielskie","addr:postcode":"38-456","amenity":"pharmacy","mobile":"727508276","opening_hours":"Mo-Fr 08:30-16:30; Sa 09:00-13:00","name:pl":"Almaz","name:uk":"Almaz","name:en":"Almaz"},"geometry":{"type":"Point","coordinates":[21.6710097,49.6049794]}},{"type":"Feature","properties":{"amenity":"pharmacy","dispensing":"no","name:pl":"Punkt Apteczny","name:uk":"Punkt Apteczny","name:en":"Punkt Apteczny"},"geometry":{"type":"Point","coordinates":[21.7256312,49.5494121]}},{"type":"Feature","properties":{"addr:housenumber":"291a","addr:place":"Lubatowa","addr:postcode":"38-441","amenity":"pharmacy","name:pl":"Apteka Lubatowa","name:uk":"Apteka Lubatowa","name:en":"Apteka Lubatowa"},"geometry":{"type":"Point","coordinates":[21.760444,49.5435714]}},{"type":"Feature","properties":{"addr:housenumber":"30","addr:place":"R\u00f3wne","addr:postcode":"38-451","amenity":"pharmacy","name:pl":"","name:uk":"","name:en":""},"geometry":{"type":"Point","coordinates":[21.7123405,49.5939629]}},{"type":"Feature","properties":{"addr:city":"Rogi","addr:housenumber":"25","addr:postcode":"38-430","addr:street":"ks. Henryka Domino","amenity":"pharmacy","name:pl":"","name:uk":"","name:en":""},"geometry":{"type":"Point","coordinates":[21.7542981,49.6129628]}},{"type":"Feature","properties":{"addr:city":"Iwonicz-Zdr\u00f3j","addr:housenumber":"4","addr:postcode":"38-440","addr:street":"S\u0142oneczna","amenity":"pharmacy","opening_hours":"Mo-Fr 08:00-20:00; Sa 08:00-16:00; Su 09:00-13:00","name:pl":"Zdrowie","name:uk":"Zdrowie","name:en":"Zdrowie"},"geometry":{"type":"Point","coordinates":[21.7904715,49.5632376]}},{"type":"Feature","properties":{"addr:city":"Iwonicz Zdr\u00f3j","addr:housenumber":"5","addr:postcode":"38-440","addr:street":"Kulczy\u0144skiego","amenity":"pharmacy","name:pl":"\"Sanatorium Uzdrowiskowe \"\"Piast\"\"\"","name:uk":"\"Sanatorium Uzdrowiskowe \"\"Piast\"\"\"","name:en":"\"Sanatorium Uzdrowiskowe \"\"Piast\"\"\""},"geometry":{"type":"Point","coordinates":[21.7871487,49.5634254]}},{"type":"Feature","properties":{"addr:city":"Iwonicz-Zdr\u00f3j","addr:housenumber":"7","addr:postcode":"38-440","addr:street":"Stanis\u0142awa Kulczy\u0144skiego","amenity":"pharmacy","name:pl":"","name:uk":"","name:en":""},"geometry":{"type":"Point","coordinates":[21.7856525,49.5634747]}},{"type":"Feature","properties":{"addr:city":"Iwonicz-Zdr\u00f3j","addr:housenumber":"22","addr:postcode":"38-440","addr:street":"ks. Jana R\u0105ba","amenity":"pharmacy","name:pl":"","name:uk":"","name:en":""},"geometry":{"type":"Point","coordinates":[21.7872605,49.5681511]}},{"type":"Feature","properties":{"addr:city":"Iwonicz-Zdr\u00f3j","addr:housenumber":"3","addr:postcode":"38-440","addr:street":"ks. Jana R\u0105ba","amenity":"pharmacy","name:pl":"","name:uk":"","name:en":""},"geometry":{"type":"Point","coordinates":[21.7875162,49.5656347]}},{"type":"Feature","properties":{"addr:city":"Iwonicz Zdr\u00f3j","addr:housenumber":"1","addr:postcode":"38-440","addr:street":"Kulczy\u0144skiego","amenity":"pharmacy","name:pl":"","name:uk":"","name:en":""},"geometry":{"type":"Point","coordinates":[21.7886202,49.5634505]}},{"type":"Feature","properties":{"addr:city":"Iwonicz-Zdr\u00f3j","addr:housenumber":"8","addr:postcode":"38-440","addr:street":"ks. Jana R\u0105ba","amenity":"pharmacy","opening_hours":"Mo-Fr 08:00-18:00; Sa 08:00-14:00","name:pl":"Apteka Rodzinna","name:uk":"Apteka Rodzinna","name:en":"Apteka Rodzinna"},"geometry":{"type":"Point","coordinates":[21.7908864,49.5654014]}},{"type":"Feature","properties":{"amenity":"pharmacy","opening_hours":"Mo-Fr 08:00-19:00; Sa 08:30-14:30; Su 08:30-12:30","name:pl":"Egida","name:uk":"Egida","name:en":"Egida"},"geometry":{"type":"Point","coordinates":[21.7921927,49.5652633]}},{"type":"Feature","properties":{"addr:city":"Iwonicz","addr:housenumber":"1a","addr:postcode":"38-440","addr:street":"Floria\u0144ska","amenity":"pharmacy","name:pl":"","name:uk":"","name:en":""},"geometry":{"type":"Point","coordinates":[21.8011082,49.6036808]}},{"type":"Feature","properties":{"addr:city":"Iwonicz","addr:housenumber":"92A","addr:postcode":"38-440","addr:street":"Floria\u0144ska","amenity":"pharmacy","healthcare":"pharmacy","name:pl":"Doz Apteka. Dbam O Zdrowie. Vita","name:uk":"Doz Apteka. Dbam O Zdrowie. Vita","name:en":"Doz Apteka. Dbam O Zdrowie. Vita"},"geometry":{"type":"Point","coordinates":[21.8055885,49.6069594]}},{"type":"Feature","properties":{"addr:housenumber":"57","addr:place":"Kopytowa","addr:postcode":"38-459","amenity":"pharmacy","name:pl":"Avena","name:uk":"Avena","name:en":"Avena"},"geometry":{"type":"Point","coordinates":[21.6105285,49.6654878]}},{"type":"Feature","properties":{"addr:city":"Jedlicze","addr:housenumber":"65","addr:postcode":"38-460","addr:street":"Ignacego \u0141ukasiewicza","amenity":"pharmacy","name:pl":"","name:uk":"","name:en":""},"geometry":{"type":"Point","coordinates":[21.6522811,49.7094227]}},{"type":"Feature","properties":{"addr:city":"Jedlicze","addr:housenumber":"10","addr:postcode":"38-460","addr:street":"Tytusa Trzecieskiego","amenity":"pharmacy","opening_hours":"Mo-Fr 08:00-18:00; Sa-Su 08:00-14:00","phone":"134380928","name:pl":"Apteka Lafarma","name:uk":"Apteka Lafarma","name:en":"Apteka Lafarma"},"geometry":{"type":"Point","coordinates":[21.6521775,49.7083673]}},{"type":"Feature","properties":{"addr:city":"Jedlicze","addr:housenumber":"3","addr:postcode":"38-460","addr:street":"Romualda Traugutta","amenity":"pharmacy","mobile":"694413911","opening_hours":"Mo-Fr 07:30-19:00; Sa 07:30-13:00","name:pl":"Apteka Mojej Mamy","name:uk":"Apteka Mojej Mamy","name:en":"Apteka Mojej Mamy"},"geometry":{"type":"Point","coordinates":[21.6449771,49.7142418]}},{"type":"Feature","properties":{"addr:city":"Zr\u0119cin","addr:housenumber":"16","addr:postcode":"38-457","addr:street":"\u0141ukasiewicza","amenity":"pharmacy","opening_hours":"Mo-Sa 07:00-22:00","phone":"134318317","name:pl":"Centrum","name:uk":"Centrum","name:en":"Centrum"},"geometry":{"type":"Point","coordinates":[21.6902137,49.6675565]}},{"type":"Feature","properties":{"addr:city":"Zr\u0119cin","addr:housenumber":"18a","addr:postcode":"38-457","addr:street":"\u0141ukasiewicza","amenity":"pharmacy","name:pl":"Im. Ignacego \u0141ukasiewicza","name:uk":"Im. Ignacego \u0141ukasiewicza","name:en":"Im. Ignacego \u0141ukasiewicza"},"geometry":{"type":"Point","coordinates":[21.6898477,49.6674531]}},{"type":"Feature","properties":{"addr:city":"G\u0142owienka","addr:housenumber":"2b","addr:postcode":"38-455","addr:street":"Szkolna","amenity":"pharmacy","name:pl":"Ambra","name:uk":"Ambra","name:en":"Ambra"},"geometry":{"type":"Point","coordinates":[21.7533103,49.6613993]}},{"type":"Feature","properties":{"addr:city":"Miejsce Piastowe","addr:housenumber":"15","addr:postcode":"38-430","addr:street":"Dworska","amenity":"pharmacy","name:pl":"Apteka Piastowska Miejsce Piastowe","name:uk":"Apteka Piastowska Miejsce Piastowe","name:en":"Apteka Piastowska Miejsce Piastowe"},"geometry":{"type":"Point","coordinates":[21.7819614,49.633274]}},{"type":"Feature","properties":{"addr:city":"Miejsce Piastowe","addr:housenumber":"14","addr:postcode":"38-440","addr:street":"Dworska","amenity":"pharmacy","dispensing":"yes","healthcare":"pharmacy","name:pl":"Apteka i o\u015brodek zdrowia","name:uk":"Apteka i o\u015brodek zdrowia","name:en":"Apteka i o\u015brodek zdrowia"},"geometry":{"type":"Point","coordinates":[21.780052,49.6344786]}},{"type":"Feature","properties":{"addr:city":"Krosno","addr:housenumber":"2","addr:postcode":"38-400","addr:street":"Stefana Kisielewskiego","amenity":"pharmacy","name:pl":"Centrum","name:uk":"Centrum","name:en":"Centrum"},"geometry":{"type":"Point","coordinates":[21.7578125,49.6837113]}},{"type":"Feature","properties":{"amenity":"pharmacy","name:pl":"","name:uk":"","name:en":""},"geometry":{"type":"Point","coordinates":[21.7518766,49.6869363]}},{"type":"Feature","properties":{"addr:city":"Krosno","addr:housenumber":"1","addr:postcode":"38-400","addr:street":"Sk\u0142adowa","amenity":"pharmacy","name:pl":"","name:uk":"","name:en":""},"geometry":{"type":"Point","coordinates":[21.7533248,49.6869799]}},{"type":"Feature","properties":{"addr:city":"Krosno","addr:housenumber":"49","addr:postcode":"38-400","addr:street":"Kazimierza Pu\u017caka","amenity":"pharmacy","name:pl":"Apteka Alpina","name:uk":"Apteka Alpina","name:en":"Apteka Alpina"},"geometry":{"type":"Point","coordinates":[21.7524089,49.6920007]}},{"type":"Feature","properties":{"addr:city":"Krosno","addr:housenumber":"81","addr:postcode":"38-400","addr:street":"Jerzego Popie\u0142uszki","amenity":"pharmacy","dispensing":"yes","healthcare":"pharmacy","name:pl":"Apteka Niebieska","name:uk":"Apteka Niebieska","name:en":"Apteka Niebieska"},"geometry":{"type":"Point","coordinates":[21.7238499,49.7038695]}},{"type":"Feature","properties":{"addr:city":"Krosno","addr:flats":"1","addr:housenumber":"16","addr:postcode":"38-400","addr:street":"ks. Stanis\u0142awa Staszica","amenity":"pharmacy","name:pl":"Alba","name:uk":"Alba","name:en":"Alba"},"geometry":{"type":"Point","coordinates":[21.7231287,49.7002265]}},{"type":"Feature","properties":{"addr:city":"Krosno","addr:housenumber":"2","addr:postcode":"38-400","addr:street":"Jana Kochanowskiego","amenity":"pharmacy","dispensing":"yes","healthcare":"pharmacy","name:pl":"","name:uk":"","name:en":""},"geometry":{"type":"Point","coordinates":[21.7167576,49.716617]}},{"type":"Feature","properties":{"addr:city":"Krosno","addr:housenumber":"1","addr:postcode":"38-400","addr:street":"Rzeszowska","amenity":"pharmacy","name:pl":"","name:uk":"","name:en":""},"geometry":{"type":"Point","coordinates":[21.7156859,49.7185466]}},{"type":"Feature","properties":{"addr:city":"Krosno","addr:housenumber":"187","addr:postcode":"38-400","addr:street":"Krakowska","amenity":"pharmacy","dispensing":"yes","healthcare":"pharmacy","name:pl":"","name:uk":"","name:en":""},"geometry":{"type":"Point","coordinates":[21.7287756,49.7089704]}},{"type":"Feature","properties":{"addr:city":"Krosno","addr:housenumber":"187","addr:postcode":"38-400","addr:street":"Krakowska","amenity":"pharmacy","name:pl":"","name:uk":"","name:en":""},"geometry":{"type":"Point","coordinates":[21.7287712,49.7087828]}},{"type":"Feature","properties":{"addr:city":"Krosno","addr:housenumber":"20","addr:postcode":"38-400","addr:street":"Hutnicza","amenity":"pharmacy","name:pl":"Niebieska","name:uk":"Niebieska","name:en":"Niebieska"},"geometry":{"type":"Point","coordinates":[21.7337851,49.7034898]}},{"type":"Feature","properties":{"amenity":"bus_station","bus":"yes","internet_access":"wlan","network":"MKS Krosno","note":"Gniazda USB do \u0142adowania telefon\u00f3w.","operator":"MKS Krosno","public_transport":"station","wheelchair":"yes","name:pl":"Dworzec MKS","name:uk":"Dworzec MKS","name:en":"Dworzec MKS"},"geometry":{"type":"Point","coordinates":[21.746981,49.6948867]}},{"type":"Feature","properties":{"amenity":"pharmacy","name:pl":"Panaceum","name:uk":"Panaceum","name:en":"Panaceum"},"geometry":{"type":"Point","coordinates":[21.7506867,49.6950915]}},{"type":"Feature","properties":{"amenity":"pharmacy","name:pl":"S\u0142oneczna","name:uk":"S\u0142oneczna","name:en":"S\u0142oneczna"},"geometry":{"type":"Point","coordinates":[21.7495038,49.6985592]}},{"type":"Feature","properties":{"addr:city":"Krosno","addr:housenumber":"21","addr:postcode":"38-400","addr:street":"Naftowa","amenity":"pharmacy","dispensing":"yes","healthcare":"pharmacy","name:pl":"","name:uk":"","name:en":""},"geometry":{"type":"Point","coordinates":[21.7479155,49.6951974]}},{"type":"Feature","properties":{"addr:city":"Krosno","addr:housenumber":"6","addr:postcode":"38-400","addr:street":"Tysi\u0105clecia","amenity":"pharmacy","name:pl":"Alba-Bis","name:uk":"Alba-Bis","name:en":"Alba-Bis"},"geometry":{"type":"Point","coordinates":[21.749433,49.6968847]}},{"type":"Feature","properties":{"addr:city":"Krosno","addr:housenumber":"2","addr:postcode":"38-400","addr:street":"Kolejowa","amenity":"pharmacy","brand":"Dr. Max","brand:wikidata":"Q56317371","brand:wikipedia":"fr:Dr.Max","dispensing":"yes","healthcare":"pharmacy","name:pl":"Dr. Max","name:uk":"Dr. Max","name:en":"Dr. Max"},"geometry":{"type":"Point","coordinates":[21.753468,49.6966229]}},{"type":"Feature","properties":{"addr:city":"Krosno","addr:housenumber":"35","addr:postcode":"38-400","addr:street":"Augusta Lewakowskiego","amenity":"pharmacy","dispensing":"yes","healthcare":"pharmacy","name:pl":"Apteka Piastowska","name:uk":"Apteka Piastowska","name:en":"Apteka Piastowska"},"geometry":{"type":"Point","coordinates":[21.7529752,49.6942664]}},{"type":"Feature","properties":{"addr:city":"Krosno","addr:housenumber":"2","addr:postcode":"38-400","addr:street":"Kolejowa","amenity":"pharmacy","name:pl":"Dr.Max","name:uk":"Dr.Max","name:en":"Dr.Max"},"geometry":{"type":"Point","coordinates":[21.7533228,49.6963987]}},{"type":"Feature","properties":{"addr:city":"Krosno","addr:flats":"N-35","addr:housenumber":"29","addr:postcode":"38-400","addr:street":"Bieszczadzka","amenity":"pharmacy","name:pl":"","name:uk":"","name:en":""},"geometry":{"type":"Point","coordinates":[21.7768047,49.6776533]}},{"type":"Feature","properties":{"amenity":"pharmacy","dispensing":"yes","healthcare":"pharmacy","name:pl":"Apteka","name:uk":"Apteka","name:en":"Apteka"},"geometry":{"type":"Point","coordinates":[21.7579894,49.6839185]}},{"type":"Feature","properties":{"addr:city":"Krosno","addr:housenumber":"1","addr:postcode":"38-400","addr:street":"Stefana Kisielewskiego","amenity":"pharmacy","name:pl":"Doz Apteka. Dbam O Zdrowie. Vita","name:uk":"Doz Apteka. Dbam O Zdrowie. Vita","name:en":"Doz Apteka. Dbam O Zdrowie. Vita"},"geometry":{"type":"Point","coordinates":[21.7587411,49.6835388]}},{"type":"Feature","properties":{"addr:city":"Krosno","addr:housenumber":"1","addr:postcode":"38-400","addr:street":"Wincentego Witosa","amenity":"pharmacy","name:pl":"","name:uk":"","name:en":""},"geometry":{"type":"Point","coordinates":[21.7600005,49.6812129]}},{"type":"Feature","properties":{"addr:city":"Krosno","addr:housenumber":"68a","addr:postcode":"38-400","addr:street":"Grodzka","amenity":"pharmacy","dispensing":"yes","healthcare":"pharmacy","name:pl":"Apteka Rodzinna","name:uk":"Apteka Rodzinna","name:en":"Apteka Rodzinna"},"geometry":{"type":"Point","coordinates":[21.7648166,49.6841715]}},{"type":"Feature","properties":{"addr:city":"Krosno","addr:housenumber":"47b","addr:postcode":"38-400","addr:street":"Grodzka","amenity":"pharmacy","name:pl":"Alba Iii","name:uk":"Alba Iii","name:en":"Alba Iii"},"geometry":{"type":"Point","coordinates":[21.76653,49.683614]}},{"type":"Feature","properties":{"addr:city":"Krosno","addr:housenumber":"47a","addr:postcode":"38-400","addr:street":"Grodzka","amenity":"pharmacy","name:pl":"","name:uk":"","name:en":""},"geometry":{"type":"Point","coordinates":[21.7663994,49.6834359]}},{"type":"Feature","properties":{"amenity":"pharmacy","name:pl":"Apteka 24h","name:uk":"Apteka Alba 24h","name:en":"Apteka Alba 24h"},"geometry":{"type":"Point","coordinates":[21.7684224,49.6907284]}},{"type":"Feature","properties":{"amenity":"pharmacy","brand":"Dr. Max","brand:wikidata":"Q56317371","brand:wikipedia":"fr:Dr.Max","dispensing":"yes","healthcare":"pharmacy","name:pl":"Apteka pod barankiem","name:uk":"Dr. Max","name:en":"Dr. Max"},"geometry":{"type":"Point","coordinates":[21.7666386,49.6920505]}},{"type":"Feature","properties":{"addr:city":"Krosno","addr:housenumber":"1","addr:postcode":"38-400","addr:street":"Feliksa Czajkowskiego","amenity":"pharmacy","name:pl":"Dr.Max","name:uk":"Dr.Max","name:en":"Dr.Max"},"geometry":{"type":"Point","coordinates":[21.7664084,49.6921177]}},{"type":"Feature","properties":{"amenity":"pharmacy","dispensing":"yes","healthcare":"pharmacy","name:pl":"Apteka S\u0142oneczna","name:uk":"Apteka S\u0142oneczna","name:en":"Apteka S\u0142oneczna"},"geometry":{"type":"Point","coordinates":[21.7743995,49.6854005]}},{"type":"Feature","properties":{"addr:city":"Krosno","addr:housenumber":"18a","addr:postcode":"38-400","addr:street":"Bohater\u00f3w Westerplatte","amenity":"pharmacy","dispensing":"yes","healthcare":"pharmacy","name:pl":"DOZ Pigu\u0142a","name:uk":"DOZ Pigu\u0142a","name:en":"DOZ Pigu\u0142a"},"geometry":{"type":"Point","coordinates":[21.7766832,49.6827679]}},{"type":"Feature","properties":{"addr:city":"Krosno","addr:housenumber":"32A","addr:postcode":"38-400","addr:street":"Wojska Polskiego","amenity":"pharmacy","name:pl":"Galicjanka","name:uk":"Galicjanka","name:en":"Galicjanka"},"geometry":{"type":"Point","coordinates":[21.7744807,49.6852932]}},{"type":"Feature","properties":{"addr:city":"Krosno","addr:housenumber":"41","addr:postcode":"38-400","addr:street":"Wojska Polskiego","amenity":"pharmacy","name:pl":"Dr.Max","name:uk":"Dr.Max","name:en":"Dr.Max"},"geometry":{"type":"Point","coordinates":[21.7744752,49.6827522]}},{"type":"Feature","properties":{"addr:city":"Krosno","addr:housenumber":"4","addr:postcode":"38-400","addr:street":"Henryka Wieniawskiego","amenity":"pharmacy","name:pl":"Pod D\u0119bami","name:uk":"Pod D\u0119bami","name:en":"Pod D\u0119bami"},"geometry":{"type":"Point","coordinates":[21.7825943,49.6809745]}},{"type":"Feature","properties":{"amenity":"pharmacy","brand":"Dr. Max","brand:wikidata":"Q56317371","brand:wikipedia":"fr:Dr.Max","dispensing":"yes","healthcare":"pharmacy","name:pl":"Dr. Max","name:uk":"Dr. Max","name:en":"Dr. Max"},"geometry":{"type":"Point","coordinates":[21.7746188,49.6867575]}},{"type":"Feature","properties":{"amenity":"pharmacy","dispensing":"yes","healthcare":"pharmacy","name:pl":"Apteka","name:uk":"Apteka","name:en":"Apteka"},"geometry":{"type":"Point","coordinates":[21.7731047,49.687098]}},{"type":"Feature","properties":{"amenity":"pharmacy","dispensing":"yes","healthcare":"pharmacy","name:pl":"","name:uk":"","name:en":""},"geometry":{"type":"Point","coordinates":[21.7724209,49.6923915]}},{"type":"Feature","properties":{"amenity":"pharmacy","dispensing":"yes","healthcare":"pharmacy","name:pl":"Apteka w Rynku","name:uk":"Apteka w Rynku","name:en":"Apteka w Rynku"},"geometry":{"type":"Point","coordinates":[21.7642358,49.6936171]}},{"type":"Feature","properties":{"addr:city":"Krosno","addr:housenumber":"6a","addr:postcode":"38-400","addr:street":"Ignacego Jana Paderewskiego","amenity":"pharmacy","name:pl":"Dr.Max","name:uk":"Dr.Max","name:en":"Dr.Max"},"geometry":{"type":"Point","coordinates":[21.761812,49.694485]}},{"type":"Feature","properties":{"addr:city":"Krosno","addr:housenumber":"142","addr:postcode":"38-400","addr:street":"Hetmana Stanis\u0142awa \u017b\u00f3\u0142kiewskiego","amenity":"pharmacy","dispensing":"yes","healthcare":"pharmacy","name:pl":"DOZ","name:uk":"DOZ","name:en":"DOZ"},"geometry":{"type":"Point","coordinates":[21.7745951,49.696178]}},{"type":"Feature","properties":{"addr:city":"Krosno","addr:housenumber":"57","addr:postcode":"38-400","addr:street":"Korczy\u0144ska","blood:whole":"yes","description":"Godziny otwarcia to godziny pracy rejestracji dla dawc\u00f3w.","email":"sekretariat@rckk.rzeszow.pl","healthcare":"blood_donation","opening_hours":"Mo-Fr 07:00-12:00","operator":"Regionalne Centrum Krwiodawstwa i Krwiolecznictwa w Rzeszowie","phone":"+48 13 420-10-50","website":"https://www.rckk.rzeszow.pl/gdzie-oddac-krew/terenowe-oddzialy","name:pl":"RCKiK w Rzeszowie TO Krosno","name:uk":"\u041c\u0456\u0441\u0446\u0435\u0432\u0435 \u0412\u0456\u0434\u0434\u0456\u043b\u0435\u043d\u043d\u044f \u0420\u0435\u0433\u0456\u043e\u043d\u0430\u043b\u044c\u043d\u043e\u0457 \u0421\u0442\u0430\u043d\u0446\u0456\u0457 \u041f\u0435\u0440\u0435\u043b\u0438\u0432\u0430\u043d\u043d\u044f \u0442\u0430 \u041b\u0456\u043a\u0443\u0432\u0430\u043d\u043d\u044f \u043a\u0440\u043e\u0432\u0456 \u041a\u0440\u043e\u0441\u043d\u043e","name:en":"RCKiK w Rzeszowie TO Krosno"},"geometry":{"type":"Point","coordinates":[21.7825447,49.7016917]}},{"type":"Feature","properties":{"addr:city":"Krosno","addr:housenumber":"57","addr:postcode":"38-400","addr:street":"Korczy\u0144ska","amenity":"pharmacy","name:pl":"Pod Gwiazd\u0105","name:uk":"Pod Gwiazd\u0105","name:en":"Pod Gwiazd\u0105"},"geometry":{"type":"Point","coordinates":[21.783013,49.70143]}},{"type":"Feature","properties":{"addr:city":"Korczyna","addr:housenumber":"8","addr:postcode":"38-420","addr:street":"Parkowa","amenity":"pharmacy","opening_hours":"Mo-Fr 08:00-18:00","phone":"134354103","name:pl":"Apteka Salus","name:uk":"Apteka Salus","name:en":"Apteka Salus"},"geometry":{"type":"Point","coordinates":[21.8074423,49.7119784]}},{"type":"Feature","properties":{"addr:city":"Korczyna","addr:housenumber":"3","addr:postcode":"38-420","addr:street":"bp. J\u00f3zefa Sebastiana Pelczara","amenity":"pharmacy","opening_hours":"Mo-Fr 07:00-22:00; Sa 07:00-20:00","phone":"134354011","name:pl":"","name:uk":"","name:en":""},"geometry":{"type":"Point","coordinates":[21.8094412,49.7157596]}},{"type":"Feature","properties":{"amenity":"pharmacy","name:pl":"","name:uk":"","name:en":""},"geometry":{"type":"Point","coordinates":[21.4623669,49.7382874]}},{"type":"Feature","properties":{"amenity":"pharmacy","name:pl":"Apteka","name:uk":"Apteka","name:en":"Apteka"},"geometry":{"type":"Point","coordinates":[21.4619284,49.7387555]}},{"type":"Feature","properties":{"amenity":"pharmacy","healthcare":"pharmacy","name:pl":"","name:uk":"","name:en":""},"geometry":{"type":"Point","coordinates":[21.4691103,49.7427263]}},{"type":"Feature","properties":{"amenity":"pharmacy","healthcare":"pharmacy","name:pl":"Apteka","name:uk":"Apteka","name:en":"Apteka"},"geometry":{"type":"Point","coordinates":[21.4636933,49.7432315]}},{"type":"Feature","properties":{"amenity":"pharmacy","healthcare":"pharmacy","name:pl":"","name:uk":"","name:en":""},"geometry":{"type":"Point","coordinates":[21.4709658,49.7440531]}},{"type":"Feature","properties":{"amenity":"pharmacy","dispensing":"yes","opening_hours":"Mo-Fr 07:00-22:00; Sa 07:00-20:00","name:pl":"Centrum","name:uk":"Centrum","name:en":"Centrum"},"geometry":{"type":"Point","coordinates":[21.4736512,49.7438108]}},{"type":"Feature","properties":{"amenity":"pharmacy","name:pl":"","name:uk":"","name:en":""},"geometry":{"type":"Point","coordinates":[21.4718242,49.7394111]}},{"type":"Feature","properties":{"amenity":"pharmacy","healthcare":"pharmacy","name:pl":"Elixir","name:uk":"Elixir","name:en":"Elixir"},"geometry":{"type":"Point","coordinates":[21.4708914,49.740986]}},{"type":"Feature","properties":{"amenity":"pharmacy","dispensing":"yes","healthcare":"pharmacy","name:pl":"","name:uk":"","name:en":""},"geometry":{"type":"Point","coordinates":[21.4683546,49.7456967]}},{"type":"Feature","properties":{"amenity":"pharmacy","name:pl":"Apteka \"U Rysaka\"","name:uk":"Apteka \"U Rysaka\"","name:en":"Apteka \"U Rysaka\""},"geometry":{"type":"Point","coordinates":[21.4733107,49.7470768]}},{"type":"Feature","properties":{"amenity":"pharmacy","name:pl":"","name:uk":"","name:en":""},"geometry":{"type":"Point","coordinates":[21.4730969,49.7463499]}},{"type":"Feature","properties":{"amenity":"pharmacy","dispensing":"yes","healthcare":"pharmacy","opening_hours":"Mo-Fr 07:00-20:00; Sa 07:00-15:00; Su off","name:pl":"Apteka Niezapominajka","name:uk":"Apteka Niezapominajka","name:en":"Apteka Niezapominajka"},"geometry":{"type":"Point","coordinates":[21.4735348,49.7474121]}},{"type":"Feature","properties":{"amenity":"pharmacy","dispensing":"yes","healthcare":"pharmacy","name:pl":"Apteka S\u0142oneczna","name:uk":"Apteka S\u0142oneczna","name:en":"Apteka S\u0142oneczna"},"geometry":{"type":"Point","coordinates":[21.4736886,49.7454937]}},{"type":"Feature","properties":{"amenity":"pharmacy","dispensing":"yes","healthcare":"pharmacy","name:pl":"","name:uk":"","name:en":""},"geometry":{"type":"Point","coordinates":[21.4753214,49.7525266]}},{"type":"Feature","properties":{"addr:city":"Jas\u0142o","addr:housenumber":"22","addr:postcode":"38-200","addr:street":"Lwowska","blood:whole":"yes","description":"Godziny otwarcia to godziny pracy rejestracji dla dawc\u00f3w.","email":"sekretariat@rckk.rzeszow.pl","healthcare":"blood_donation","opening_hours":"Mo-Fr 07:00-11:30","operator":"Regionalne Centrum Krwiodawstwa i Krwiolecznictwa w Rzeszowie","phone":"+48 13 445-84-68","website":"https://www.rckk.rzeszow.pl/gdzie-oddac-krew/terenowe-oddzialy","name:pl":"RCKiK w Rzeszowie TO Jas\u0142o","name:uk":"\u041c\u0456\u0441\u0446\u0435\u0432\u0435 \u0412\u0456\u0434\u0434\u0456\u043b\u0435\u043d\u043d\u044f \u0420\u0435\u0433\u0456\u043e\u043d\u0430\u043b\u044c\u043d\u043e\u0457 \u0421\u0442\u0430\u043d\u0446\u0456\u0457 \u041f\u0435\u0440\u0435\u043b\u0438\u0432\u0430\u043d\u043d\u044f \u0442\u0430 \u041b\u0456\u043a\u0443\u0432\u0430\u043d\u043d\u044f \u043a\u0440\u043e\u0432\u0456 \u042f\u0441\u043b\u043e","name:en":"RCKiK w Rzeszowie TO Jas\u0142o"},"geometry":{"type":"Point","coordinates":[21.4803956,49.7523982]}},{"type":"Feature","properties":{"amenity":"pharmacy","name:pl":"","name:uk":"","name:en":""},"geometry":{"type":"Point","coordinates":[21.4320759,49.8034559]}},{"type":"Feature","properties":{"amenity":"pharmacy","name:pl":"Rynek","name:uk":"Rynek","name:en":"Rynek"},"geometry":{"type":"Point","coordinates":[21.4336543,49.8074548]}},{"type":"Feature","properties":{"amenity":"pharmacy","opening_hours":"Mo-Fr 08:00-18:00; Sa 08:00-13:00","name:pl":"Vita","name:uk":"Vita","name:en":"Vita"},"geometry":{"type":"Point","coordinates":[21.4341366,49.8068842]}},{"type":"Feature","properties":{"addr:city":"Brzostek","addr:housenumber":"18","addr:street":"Rynek","amenity":"pharmacy","phone":"+48146830567","name:pl":"Apteka","name:uk":"Apteka","name:en":"Apteka"},"geometry":{"type":"Point","coordinates":[21.40948,49.88032]}},{"type":"Feature","properties":{"addr:city":"Brzostek","addr:housenumber":"5","addr:street":"Szkolna","amenity":"pharmacy","phone":"+48146830567","name:pl":"Vita","name:uk":"Vita","name:en":"Vita"},"geometry":{"type":"Point","coordinates":[21.4123416,49.879238]}},{"type":"Feature","properties":{"addr:housenumber":"323","addr:place":"Jaszczew","addr:postcode":"38-460","amenity":"pharmacy","mobile":"699671160","opening_hours":"Mo 08:00-14:00; Tu-We 10:00-16:00; Th 08:00-14:00; Fr 10:00-14:00","name:pl":"Punkt apteczny","name:uk":"Punkt apteczny","name:en":"Punkt apteczny"},"geometry":{"type":"Point","coordinates":[21.6558225,49.7386818]}},{"type":"Feature","properties":{"addr:housenumber":"31c","addr:place":"Wojasz\u00f3wka","addr:postcode":"38-471","amenity":"pharmacy","name:pl":"Arkadia","name:uk":"Arkadia","name:en":"Arkadia"},"geometry":{"type":"Point","coordinates":[21.6681904,49.7797305]}},{"type":"Feature","properties":{"addr:city":"Odrzyko\u0144","addr:housenumber":"3","addr:postcode":"38-406","addr:street":"Kro\u015bnie\u0144ska","amenity":"pharmacy","name:pl":"Animed","name:uk":"Animed","name:en":"Animed"},"geometry":{"type":"Point","coordinates":[21.7401601,49.7386589]}},{"type":"Feature","properties":{"amenity":"pharmacy","opening_hours":"Mo-Fr 07:00-21:00; Sa 07:00-15:00","phone":"177110456","name:pl":"R\u00f3\u017cana","name:uk":"R\u00f3\u017cana","name:en":"R\u00f3\u017cana"},"geometry":{"type":"Point","coordinates":[21.6106385,49.8343374]}},{"type":"Feature","properties":{"addr:city":"Frysztak","addr:housenumber":"11","addr:postcode":"38-130","addr:street":"Rzeszowska","amenity":"pharmacy","opening_hours":"Mo-Fr 09:00-17:00","phone":"+48 17 2777680","name:pl":"Medicus","name:uk":"Medicus","name:en":"Medicus"},"geometry":{"type":"Point","coordinates":[21.6127413,49.8362992]}},{"type":"Feature","properties":{"addr:city":"Frysztak","addr:flats":"2","addr:housenumber":"1/2","addr:postcode":"38-130","addr:street":"Plac \u015bw. Floriana","amenity":"pharmacy","opening_hours":"Mo-Fr 07:00-21:00; Sa 07:00-15:00","phone":"+48 17 7110456","name:pl":"R\u00f3\u017cana","name:uk":"R\u00f3\u017cana","name:en":"R\u00f3\u017cana"},"geometry":{"type":"Point","coordinates":[21.6110435,49.8344983]}},{"type":"Feature","properties":{"addr:city":"Frysztak","addr:housenumber":"18","addr:postcode":"38-130","addr:street":"Miko\u0142aja Frysztackiego","amenity":"pharmacy","opening_hours":"Mo-Fr 07:30-18:00; Sa 08:00-12:30","name:pl":"Kleopatra","name:uk":"Kleopatra","name:en":"Kleopatra"},"geometry":{"type":"Point","coordinates":[21.6094033,49.8346177]}},{"type":"Feature","properties":{"addr:city":"Frysztak","addr:housenumber":"10","addr:postcode":"38-130","addr:street":"Miko\u0142aja Frysztackiego","amenity":"pharmacy","opening_hours":"Mo-Fr 08:00-19:00; Sa 08:00-14:00","name:pl":"","name:uk":"","name:en":""},"geometry":{"type":"Point","coordinates":[21.6091874,49.834821]}},{"type":"Feature","properties":{"addr:city":"Frysztak","addr:flats":"5","addr:housenumber":"3","addr:postcode":"38-130","addr:street":"J\u00f3zefa Pi\u0119tniewicza","amenity":"pharmacy","opening_hours":"Mo-Fr 08:00-18:00","name:pl":"","name:uk":"","name:en":""},"geometry":{"type":"Point","coordinates":[21.6073582,49.8349689]}},{"type":"Feature","properties":{"addr:housenumber":"136","addr:place":"Wi\u015bniowa","addr:postcode":"38-124","amenity":"pharmacy","email":"mgr.alicja.gawel@gmail.com","opening_hours":"Mo-Fr 08:00-17:00","phone":"+48 17 277 50 58","name:pl":"Apteka prywatna mgr farm. Gawe\u0142 Alicja","name:uk":"Apteka prywatna mgr farm. Gawe\u0142 Alicja","name:en":"Apteka prywatna mgr farm. Gawe\u0142 Alicja"},"geometry":{"type":"Point","coordinates":[21.6554525,49.8686779]}},{"type":"Feature","properties":{"addr:flats":"1","addr:housenumber":"22","addr:place":"Markuszowa","addr:postcode":"38-126","amenity":"pharmacy","healthcare":"pharmacy","opening_hours":"Mo 12:00-19:00; Tu 08:00-15:00; We 11:30-19:00; Th 08:00-15:00; Fr 11:30-19:00; Sa 08:00-10:00","phone":"+48 17 2776261","name:pl":"","name:uk":"","name:en":""},"geometry":{"type":"Point","coordinates":[21.7092049,49.8629052]}},{"type":"Feature","properties":{"addr:housenumber":"466A","addr:place":"Dobrzech\u00f3w","addr:postcode":"38-122","amenity":"pharmacy","opening_hours":"Mo-Fr 07:30-19:00","phone":"172765157","name:pl":"Ania","name:uk":"Ania","name:en":"Ania"},"geometry":{"type":"Point","coordinates":[21.7539955,49.8756864]}},{"type":"Feature","properties":{"addr:city":"Strzy\u017c\u00f3w","addr:housenumber":"1","addr:postcode":"38-100","addr:street":"700-lecia","amenity":"pharmacy","email":"marzena.jacek@O2.pl ; apteka@zozstrzyzow.pl","opening_hours":"Mo-Fr 07:30-15:00","phone":"+48 17 2760180","name:pl":"Dzia\u0142 Farmacji Szpitalnej ZOZ w Strzy\u017cowie","name:uk":"Dzia\u0142 Farmacji Szpitalnej ZOZ w Strzy\u017cowie","name:en":"Dzia\u0142 Farmacji Szpitalnej ZOZ w Strzy\u017cowie"},"geometry":{"type":"Point","coordinates":[21.7840715,49.8698556]}},{"type":"Feature","properties":{"addr:city":"Strzy\u017c\u00f3w","addr:housenumber":"1","addr:postcode":"38-100","addr:street":"Parkowa","amenity":"pharmacy","opening_hours":"Mo-Fr 07:00-21:00; Sa 07:00-21:00","phone":"+48 17 276 24 01","phone:mobile":"+48 800 110 110","website":"https://www.doz.pl/apteki/a174940-DOZ_Apteka_Dbam_o_Zdrowie","name:pl":"Apteka \"Pod Duchem \u015awi\u0119tym\"","name:uk":"Apteka \"Pod Duchem \u015awi\u0119tym\"","name:en":"Apteka \"Pod Duchem \u015awi\u0119tym\""},"geometry":{"type":"Point","coordinates":[21.7897219,49.8692052]}},{"type":"Feature","properties":{"addr:city":"Strzy\u017c\u00f3w","addr:housenumber":"10","addr:postcode":"38-100","addr:street":"S\u0142owackiego","amenity":"pharmacy","email":"apteka200040@wp.pl","opening_hours":"Mo-Sa 07:00-21:00","phone":"+48 17 2760180","name:pl":"Apteka Prywatna Im. W. Zaj\u0105czkowskiego","name:uk":"Apteka Prywatna Im. W. Zaj\u0105czkowskiego","name:en":"Apteka Prywatna Im. W. Zaj\u0105czkowskiego"},"geometry":{"type":"Point","coordinates":[21.7888368,49.8688595]}},{"type":"Feature","properties":{"addr:city":"Strzy\u017c\u00f3w","addr:housenumber":"4","addr:postcode":"38-100","addr:street":"700-lecia Strzy\u017cowa","amenity":"pharmacy","opening_hours":"Mo-Fr 07:30-21:00; Sa 08:00-20:00","phone":"+48 17 2765432","name:pl":"Apteka \"Panax\"","name:uk":"Apteka \"Panax\"","name:en":"Apteka \"Panax\""},"geometry":{"type":"Point","coordinates":[21.7845908,49.8697584]}},{"type":"Feature","properties":{"addr:city":"Strzy\u017c\u00f3w","addr:housenumber":"12","addr:postcode":"38-100","addr:street":"Parkowa","amenity":"pharmacy","opening_hours":"Mo-Fr 08:00-18:00","name:pl":"R\u00f3\u017cana","name:uk":"R\u00f3\u017cana","name:en":"R\u00f3\u017cana"},"geometry":{"type":"Point","coordinates":[21.7897426,49.8707153]}},{"type":"Feature","properties":{"amenity":"bus_station","name:pl":"Dworzec PKS Strzy\u017c\u00f3w nad Wis\u0142okiem","name:uk":"\u0410\u0432\u0442\u043e\u0432\u043e\u043a\u0437\u0430\u043b \u0421\u0442\u0440\u0438\u0436\u0456\u0432 \u043d\u0430\u0434 \u0412\u0456\u0441\u043b\u043e\u043a\u0435\u043c","name:en":"Dworzec PKS Strzy\u017c\u00f3w nad Wis\u0142okiem"},"geometry":{"type":"Point","coordinates":[21.8003362,49.8697736]}},{"type":"Feature","properties":{"amenity":"social_facility","fixme":"exact location within town","official_name":"Hotspot Ve\u013ek\u00e9 Slemence","operator":"Ministerstvo vn\u00fatra SR","social_facility":"outreach","social_facility:for":"refugee","name:pl":"Punkt Pomocy Ve\u013ek\u00e9 Slemence","name:uk":"\u041f\u0443\u043d\u043a\u0442 \u0434\u043e\u043f\u043e\u043c\u043e\u0433\u0438 Ve\u013ek\u00e9 Slemence","name:en":"\u041f\u0443\u043d\u043a\u0442 \u0434\u043e\u043f\u043e\u043c\u043e\u0433\u0438 Ve\u013ek\u00fdch Slemenciach"},"geometry":{"type":"Point","coordinates":[22.1422322,48.5088769]}},{"type":"Feature","properties":{"amenity":"social_facility","fixme":"exact location within town","official_name":"Hotspot Vy\u0161n\u00e9 Nemeck\u00e9","operator":"Ministerstvo vn\u00fatra SR","social_facility":"outreach","social_facility:for":"refugee","name:pl":"Punkt Pomocy Vy\u0161n\u00e9 Nemeck\u00e9","name:uk":"\u041f\u0443\u043d\u043a\u0442 \u0434\u043e\u043f\u043e\u043c\u043e\u0433\u0438 Vy\u0161n\u00e9 Nemeck\u00e9","name:en":"\u041f\u0443\u043d\u043a\u0442 \u0434\u043e\u043f\u043e\u043c\u043e\u0433\u0438 Vy\u0161n\u00e9 Nemeck\u00e9"},"geometry":{"type":"Point","coordinates":[22.2631482,48.6595919]}},{"type":"Feature","properties":{"amenity":"social_facility","fixme":"exact location within town","official_name":"Hotspot Sobrance","operator":"Ministerstvo vn\u00fatra SR","social_facility":"outreach","social_facility:for":"refugee","name:pl":"Punkt Pomocy Sobrance","name:uk":"\u041f\u0443\u043d\u043a\u0442 \u0434\u043e\u043f\u043e\u043c\u043e\u0433\u0438 Sobrance","name:en":"\u041f\u0443\u043d\u043a\u0442 \u0434\u043e\u043f\u043e\u043c\u043e\u0433\u0438 Sobrance"},"geometry":{"type":"Point","coordinates":[22.1801104,48.745256]}},{"type":"Feature","properties":{"amenity":"social_facility","official_name":"Hotspot Humenn\u00e9","operator":"Ministerstvo vn\u00fatra SR","social_facility":"outreach","social_facility:for":"refugee","name:pl":"Punkt Pomocy Humenn\u00e9","name:uk":"\u041f\u0443\u043d\u043a\u0442 \u0434\u043e\u043f\u043e\u043c\u043e\u0433\u0438 Humenn\u00e9","name:en":"\u041f\u0443\u043d\u043a\u0442 \u0434\u043e\u043f\u043e\u043c\u043e\u0433\u0438 Humenn\u00e9"},"geometry":{"type":"Point","coordinates":[21.8950486,48.9352702]}},{"type":"Feature","properties":{"amenity":"social_facility","fixme":"exact location within town","official_name":"Hotspot Ub\u013ea","operator":"Ministerstvo vn\u00fatra SR","social_facility":"outreach","social_facility:for":"refugee","name:pl":"Punkt Pomocy Ub\u013ea","name:uk":"\u041f\u0443\u043d\u043a\u0442 \u0434\u043e\u043f\u043e\u043c\u043e\u0433\u0438 Ub\u013ea","name:en":"\u041f\u0443\u043d\u043a\u0442 \u0434\u043e\u043f\u043e\u043c\u043e\u0433\u0438 Ub\u013ea"},"geometry":{"type":"Point","coordinates":[22.3898028,48.8992012]}},{"type":"Feature","properties":{"amenity":"social_facility","fixme":"exact location within town","official_name":"Hotspot Uli\u010d","operator":"Ministerstvo vn\u00fatra SR","social_facility":"outreach","social_facility:for":"refugee","name:pl":"Punkt Pomocy Uli\u010d","name:uk":"\u041f\u0443\u043d\u043a\u0442 \u0434\u043e\u043f\u043e\u043c\u043e\u0433\u0438 Uli\u010d","name:en":"\u041f\u0443\u043d\u043a\u0442 \u0434\u043e\u043f\u043e\u043c\u043e\u0433\u0438 Uli\u010d"},"geometry":{"type":"Point","coordinates":[22.4259107,48.9624366]}},{"type":"Feature","properties":{"amenity":"hospital","name:pl":"\u0412\u0435\u0440\u0445\u043d\u044c\u043e\u0432\u0438\u0441\u043e\u0446\u044c\u043a\u0430 \u0434\u0456\u043b\u044c\u043d\u0438\u0447\u043d\u0430 \u043b\u0456\u043a\u0430\u0440\u043d\u044f","name:uk":"\u0412\u0435\u0440\u0445\u043d\u044c\u043e\u0432\u0438\u0441\u043e\u0446\u044c\u043a\u0430 \u0434\u0456\u043b\u044c\u043d\u0438\u0447\u043d\u0430 \u043b\u0456\u043a\u0430\u0440\u043d\u044f","name:en":"\u0412\u0435\u0440\u0445\u043d\u044c\u043e\u0432\u0438\u0441\u043e\u0446\u044c\u043a\u0430 \u0434\u0456\u043b\u044c\u043d\u0438\u0447\u043d\u0430 \u043b\u0456\u043a\u0430\u0440\u043d\u044f"},"geometry":{"type":"Point","coordinates":[23.0441677,48.943637]}},{"type":"Feature","properties":{"addr:housenumber":"90","addr:postcode":"82547","addr:street":"\u041c\u0438\u043a\u043e\u043b\u0430\u0439\u0447\u0443\u043a\u0430 \u0432\u0443\u043b\u0438\u0446\u044f","amenity":"hospital","emergency":"yes","healthcare":"hospital","name:pl":"\u0411\u043e\u0440\u0438\u043d\u0441\u044c\u043a\u0430 \u043c\u0456\u0441\u044c\u043a\u0430 \u043a\u043e\u043c\u0443\u043d\u0430\u043b\u044c\u043d\u0430 \u043b\u0456\u043a\u0430\u0440\u043d\u044f","name:uk":"\u0411\u043e\u0440\u0438\u043d\u0441\u044c\u043a\u0430 \u043c\u0456\u0441\u044c\u043a\u0430 \u043a\u043e\u043c\u0443\u043d\u0430\u043b\u044c\u043d\u0430 \u043b\u0456\u043a\u0430\u0440\u043d\u044f","name:en":"\u0411\u043e\u0440\u0438\u043d\u0441\u044c\u043a\u0430 \u043c\u0456\u0441\u044c\u043a\u0430 \u043a\u043e\u043c\u0443\u043d\u0430\u043b\u044c\u043d\u0430 \u043b\u0456\u043a\u0430\u0440\u043d\u044f"},"geometry":{"type":"Point","coordinates":[23.0322441,49.0579067]}},{"type":"Feature","properties":{"amenity":"pharmacy","name:pl":"","name:uk":"","name:en":""},"geometry":{"type":"Point","coordinates":[23.4258614,48.7796453]}},{"type":"Feature","properties":{"amenity":"hospital","healthcare":"doctor","name:pl":"","name:uk":"","name:en":""},"geometry":{"type":"Point","coordinates":[23.3905949,48.856536]}},{"type":"Feature","properties":{"addr:street":"\u0410\u043d\u0430\u0442\u043e\u043b\u0456\u044f \u0410\u0440\u0445\u0430\u043d\u0433\u0435\u043b\u044c\u0441\u044c\u043a\u043e\u0433\u043e \u0432\u0443\u043b\u0438\u0446\u044f","amenity":"pharmacy","healthcare":"pharmacy","note":"Does it really exist inside this hospital building?","name:pl":"","name:uk":"","name:en":""},"geometry":{"type":"Point","coordinates":[23.4460831,48.8479784]}},{"type":"Feature","properties":{"amenity":"pharmacy","healthcare":"pharmacy","name:pl":"","name:uk":"","name:en":""},"geometry":{"type":"Point","coordinates":[23.4465879,48.8483206]}},{"type":"Feature","properties":{"amenity":"hospital","name:pl":"\u0406\u043b\u044c\u043d\u0438\u0446\u044c\u043a\u0430 \u043b\u0456\u043a\u0430\u0440\u043d\u044f (\u043d\u0435\u0434\u0456\u044e\u0447\u0430)","name:uk":"\u0406\u043b\u044c\u043d\u0438\u0446\u044c\u043a\u0430 \u043b\u0456\u043a\u0430\u0440\u043d\u044f (\u043d\u0435\u0434\u0456\u044e\u0447\u0430)","name:en":"\u0406\u043b\u044c\u043d\u0438\u0446\u044c\u043a\u0430 \u043b\u0456\u043a\u0430\u0440\u043d\u044f (\u043d\u0435\u0434\u0456\u044e\u0447\u0430)"},"geometry":{"type":"Point","coordinates":[23.1039796,49.0824507]}},{"type":"Feature","properties":{"addr:housenumber":"132","addr:postcode":"82632","addr:street":"\u0406\u0432\u0430\u043d\u0430 \u0424\u0440\u0430\u043d\u043a\u0430 \u0432\u0443\u043b\u0438\u0446\u044f","amenity":"pharmacy","healthcare":"pharmacy","payment:cash":"yes","name:pl":"","name:uk":"","name:en":""},"geometry":{"type":"Point","coordinates":[23.4732754,48.9101345]}},{"type":"Feature","properties":{"amenity":"pharmacy","opening_hours":"Mo-Fr 08:00-15:00","name:pl":"","name:uk":"","name:en":""},"geometry":{"type":"Point","coordinates":[22.0690522,49.3358022]}},{"type":"Feature","properties":{"amenity":"pharmacy","image":"https://commons.wikimedia.org/wiki/File:Rzeped%C5%BA_punkt_apteczny.jpg","opening_hours":"Mo-Fr 08:00-15:00","name:pl":"Punkt Apteczny","name:uk":"Punkt Apteczny","name:en":"Punkt Apteczny"},"geometry":{"type":"Point","coordinates":[22.1089969,49.3628054]}},{"type":"Feature","properties":{"amenity":"pharmacy","opening_hours":"Mo-Fr 08:00-15:00; Sa 08:00-12:00","phone":"13 467 41 44","name:pl":"","name:uk":"","name:en":""},"geometry":{"type":"Point","coordinates":[22.0608339,49.4796968]}},{"type":"Feature","properties":{"amenity":"pharmacy","opening_hours":"Mo-Fr 08:30-15:30","name:pl":"","name:uk":"","name:en":""},"geometry":{"type":"Point","coordinates":[22.0293823,49.5081186]}},{"type":"Feature","properties":{"amenity":"pharmacy","opening_hours":"Mo-Fr 08:00-16:00","name:pl":"Punkt Apteczny","name:uk":"Punkt Apteczny","name:en":"Punkt Apteczny"},"geometry":{"type":"Point","coordinates":[22.328185,49.2124091]}},{"type":"Feature","properties":{"amenity":"pharmacy","opening_hours":"Mo-Fr 07:30-15:00","phone":"+48 13 468 40 30","name:pl":"","name:uk":"","name:en":""},"geometry":{"type":"Point","coordinates":[22.286869,49.3386964]}},{"type":"Feature","properties":{"amenity":"pharmacy","opening_hours":"Mo-Fr 08:00-16:00; Sa 09:00-13:00","phone":"+48 13 469 2041","name:pl":"","name:uk":"","name:en":""},"geometry":{"type":"Point","coordinates":[22.4267503,49.3709595]}},{"type":"Feature","properties":{"amenity":"pharmacy","opening_hours":"Mo-Fr 08:00-17:00; Sa 08:00-15:00","phone":"+48 13 464 59 56","name:pl":"Omega","name:uk":"Omega","name:en":"Omega"},"geometry":{"type":"Point","coordinates":[22.4295334,49.3716381]}},{"type":"Feature","properties":{"amenity":"pharmacy","opening_hours":"Mo-Fr 08:30-15:00","phone":"13 462 0040","name:pl":"","name:uk":"","name:en":""},"geometry":{"type":"Point","coordinates":[22.2533709,49.4620961]}},{"type":"Feature","properties":{"amenity":"pharmacy","dispensing":"no","name:pl":"Omega","name:uk":"Omega","name:en":"Omega"},"geometry":{"type":"Point","coordinates":[22.3285289,49.4684759]}},{"type":"Feature","properties":{"amenity":"pharmacy","dispensing":"no","operator":"Renata Olech","name:pl":"","name:uk":"","name:en":""},"geometry":{"type":"Point","coordinates":[22.329417,49.4693316]}},{"type":"Feature","properties":{"amenity":"pharmacy","name:pl":"Maja","name:uk":"Maja","name:en":"Maja"},"geometry":{"type":"Point","coordinates":[22.3318309,49.4679974]}},{"type":"Feature","properties":{"amenity":"bus_station","bus":"yes","public_transport":"station","name:pl":"Dworzec Autobusowy Lesko","name:uk":"\u0410\u0432\u0442\u043e\u0432\u043e\u043a\u0437\u0430\u043b \u041b\u0456\u0441\u044c\u043a\u043e","name:en":"Dworzec Autobusowy Lesko"},"geometry":{"type":"Point","coordinates":[22.3252033,49.4761202]}},{"type":"Feature","properties":{"amenity":"pharmacy","name:pl":"Apteka Lisowskich","name:uk":"Apteka Lisowskich","name:en":"Apteka Lisowskich"},"geometry":{"type":"Point","coordinates":[22.3301142,49.4699523]}},{"type":"Feature","properties":{"amenity":"pharmacy","email":"apteka@spzozlesko.pl","opening_hours":"Mo-Fr 07:25-15:00","phone":"134698398","name:pl":"Apteka Szpitalna","name:uk":"Apteka Szpitalna","name:en":"Apteka Szpitalna"},"geometry":{"type":"Point","coordinates":[22.3319033,49.4737992]}},{"type":"Feature","properties":{"amenity":"pharmacy","opening_hours":"Mo-Fr 08:00-19:00; Sa 08:00-15:00","phone":"13 492 7255","name:pl":"Artfarm","name:uk":"Artfarm","name:en":"Artfarm"},"geometry":{"type":"Point","coordinates":[22.325077,49.4806344]}},{"type":"Feature","properties":{"amenity":"pharmacy","mobile":"798338953","opening_hours":"Mo-Fr 08:00-18:00; Sa 08:00-14:00","name:pl":"Danfarm Punkt Apteczny","name:uk":"Danfarm Punkt Apteczny","name:en":"Danfarm Punkt Apteczny"},"geometry":{"type":"Point","coordinates":[22.4451475,49.4768126]}},{"type":"Feature","properties":{"amenity":"pharmacy","opening_hours":"Mo-Fr 08:00-19:00; Sa 08:00-16:00","name:pl":"Apteka cef@rm 36.6","name:uk":"Apteka cef@rm 36.6","name:en":"Apteka cef@rm 36.6"},"geometry":{"type":"Point","coordinates":[22.5875313,49.4295592]}},{"type":"Feature","properties":{"amenity":"pharmacy","brand":"Dr. Max","brand:wikidata":"Q56317371","brand:wikipedia":"fr:Dr.Max","healthcare":"pharmacy","name:pl":"Dr. Max","name:uk":"Dr. Max","name:en":"Dr. Max"},"geometry":{"type":"Point","coordinates":[22.5868673,49.4296676]}},{"type":"Feature","properties":{"amenity":"pharmacy","opening_hours":"Mo-Fr 08:00-17:00; Sa 09:00-14:00","name:pl":"Apteka cef@rm 36.6","name:uk":"Apteka cef@rm 36.6","name:en":"Apteka cef@rm 36.6"},"geometry":{"type":"Point","coordinates":[22.5956856,49.429933]}},{"type":"Feature","properties":{"amenity":"pharmacy","dispensing":"yes","opening_hours":"Mo-Fr 08:00-19:00; Sa 08:00-16:00","phone":"+48 13 307 52 90","name:pl":"Omega","name:uk":"Omega","name:en":"Omega"},"geometry":{"type":"Point","coordinates":[22.5709859,49.4347927]}},{"type":"Feature","properties":{"amenity":"pharmacy","healthcare":"pharmacy","name:pl":"","name:uk":"","name:en":""},"geometry":{"type":"Point","coordinates":[22.5879588,49.4306018]}},{"type":"Feature","properties":{"amenity":"social_facility","description":"\u042f\u043a\u0449\u043e \u043f\u0456\u0441\u043b\u044f \u043f\u0440\u0438\u0431\u0443\u0442\u0442\u044f \u0434\u043e \u041f\u043e\u043b\u044c\u0449\u0456 \u0432\u0438 \u0445\u043e\u0447\u0435\u0442\u0435 \u0441\u043a\u043e\u0440\u0438\u0441\u0442\u0430\u0442\u0438\u0441\u044f \u0434\u043e\u043f\u043e\u043c\u043e\u0433\u043e\u044e, \u044f\u043a\u0443 \u043f\u0440\u043e\u043f\u043e\u043d\u0443\u0454 \u043f\u043e\u043b\u044c\u0441\u044c\u043a\u0438\u0439 \u0443\u0440\u044f\u0434, \u0437\u0432\u0435\u0440\u043d\u0456\u0442\u044c\u0441\u044f \u0434\u043e \u0442\u043e\u0433\u043e \u0447\u0438 \u0456\u043d\u0448\u043e\u0433\u043e \u043f\u0443\u043d\u043a\u0442\u0443 \u043f\u0440\u0438\u0439\u043e\u043c\u0443. \u0423 \u0446\u0438\u0445 \u043f\u0443\u043d\u043a\u0442\u0430\u0445 \u0432\u0438 \u043e\u0442\u0440\u0438\u043c\u0430\u0454\u0442\u0435 \u0457\u0436\u0443, \u043c\u043e\u0436\u043b\u0438\u0432\u0456\u0441\u0442\u044c \u0432\u0456\u0434\u043f\u043e\u0447\u0438\u0442\u0438 \u0442\u0430 \u043d\u0435\u043e\u0431\u0445\u0456\u0434\u043d\u0443 \u0456\u043d\u0444\u043e\u0440\u043c\u0430\u0446\u0456\u044e","description:pl":"Je\u015bli po przyje\u017adzie do Polski chcesz skorzysta\u0107 z pomocy oferowanej przez polski rz\u0105d, udaj si\u0119 do tego lub innego punktu recepcyjnego. W punktach tych otrzymasz posi\u0142ek, mo\u017cliwo\u015b\u0107 odpoczynku i niezb\u0119dne informacje","description:uk":"\u042f\u043a\u0449\u043e \u043f\u0456\u0441\u043b\u044f \u043f\u0440\u0438\u0431\u0443\u0442\u0442\u044f \u0434\u043e \u041f\u043e\u043b\u044c\u0449\u0456 \u0432\u0438 \u0445\u043e\u0447\u0435\u0442\u0435 \u0441\u043a\u043e\u0440\u0438\u0441\u0442\u0430\u0442\u0438\u0441\u044f \u0434\u043e\u043f\u043e\u043c\u043e\u0433\u043e\u044e, \u044f\u043a\u0443 \u043f\u0440\u043e\u043f\u043e\u043d\u0443\u0454 \u043f\u043e\u043b\u044c\u0441\u044c\u043a\u0438\u0439 \u0443\u0440\u044f\u0434, \u0437\u0432\u0435\u0440\u043d\u0456\u0442\u044c\u0441\u044f \u0434\u043e \u0442\u043e\u0433\u043e \u0447\u0438 \u0456\u043d\u0448\u043e\u0433\u043e \u043f\u0443\u043d\u043a\u0442\u0443 \u043f\u0440\u0438\u0439\u043e\u043c\u0443. \u0423 \u0446\u0438\u0445 \u043f\u0443\u043d\u043a\u0442\u0430\u0445 \u0432\u0438 \u043e\u0442\u0440\u0438\u043c\u0430\u0454\u0442\u0435 \u0457\u0436\u0443, \u043c\u043e\u0436\u043b\u0438\u0432\u0456\u0441\u0442\u044c \u0432\u0456\u0434\u043f\u043e\u0447\u0438\u0442\u0438 \u0442\u0430 \u043d\u0435\u043e\u0431\u0445\u0456\u0434\u043d\u0443 \u0456\u043d\u0444\u043e\u0440\u043c\u0430\u0446\u0456\u044e","official_name":"Punkt Recepcji","phone":"+48 47 721 75 75","social_facility":"outreach","social_facility:for":"refugee","url":"https://www.gov.pl/web/udsc/ukraina","name:pl":"Punkt Pomocy \u0141odyna","name:uk":"\u041f\u0443\u043d\u043a\u0442 \u0434\u043e\u043f\u043e\u043c\u043e\u0433\u0438 \u0141odyna","name:en":"\u041f\u0443\u043d\u043a\u0442 \u0434\u043e\u043f\u043e\u043c\u043e\u0433\u0438 \u0141odyna"},"geometry":{"type":"Point","coordinates":[22.5948854,49.4601644]}},{"type":"Feature","properties":{"addr:city":"Ryman\u00f3w Zdr\u00f3j","addr:housenumber":"4","addr:postcode":"38-481","addr:street":"Le\u015bna","amenity":"pharmacy","name:pl":"","name:uk":"","name:en":""},"geometry":{"type":"Point","coordinates":[21.8535856,49.5427366]}},{"type":"Feature","properties":{"amenity":"bus_station","name:pl":"PKS Ryman\u00f3w Zdr\u00f3j","name:uk":"\u0410\u0432\u0442\u043e\u0432\u043e\u043a\u0437\u0430\u043b \u0420\u0438\u043c\u0430\u043d\u0443\u0432 \u0417\u0434\u0440\u0443\u0439","name:en":"PKS Ryman\u00f3w Zdr\u00f3j"},"geometry":{"type":"Point","coordinates":[21.8523155,49.5505283]}},{"type":"Feature","properties":{"addr:city":"Ryman\u00f3w-Zdr\u00f3j","addr:housenumber":"41","addr:postcode":"38-521","addr:street":"Zdrojowa","amenity":"pharmacy","name:pl":"Doz Apteka. Dbam O Zdrowie. Zielona","name:uk":"Doz Apteka. Dbam O Zdrowie. Zielona","name:en":"Doz Apteka. Dbam O Zdrowie. Zielona"},"geometry":{"type":"Point","coordinates":[21.8521539,49.5509427]}},{"type":"Feature","properties":{"addr:city":"Ryman\u00f3w-Zdr\u00f3j","addr:housenumber":"38","addr:postcode":"38-481","addr:street":"Zdrojowa","amenity":"pharmacy","name:pl":"Remedium","name:uk":"Remedium","name:en":"Remedium"},"geometry":{"type":"Point","coordinates":[21.8514892,49.550305]}},{"type":"Feature","properties":{"addr:city":"Ryman\u00f3w","addr:housenumber":"2","addr:postcode":"38-520","addr:street":"Pi\u0142sudskiego","amenity":"pharmacy","dispensing":"yes","healthcare":"pharmacy","name:pl":"Malwa","name:uk":"Malwa","name:en":"Malwa"},"geometry":{"type":"Point","coordinates":[21.8671876,49.5746757]}},{"type":"Feature","properties":{"addr:city":"Ryman\u00f3w","addr:housenumber":"21","addr:postcode":"38-520","addr:street":"Rynek","amenity":"pharmacy","noname":"yes","wheelchair":"no","name:pl":"","name:uk":"","name:en":""},"geometry":{"type":"Point","coordinates":[21.8670408,49.5763052]}},{"type":"Feature","properties":{"addr:city":"Ryman\u00f3w","addr:city:simc":"0953421","addr:housenumber":"5a","addr:postcode":"38-480","addr:street":"Pi\u0119kna","addr:street:sym_ul":"16191","amenity":"pharmacy","dispensing":"yes","healthcare":"pharmacy","source:addr":"gugik.gov.pl","name:pl":"Omega","name:uk":"Omega","name:en":"Omega"},"geometry":{"type":"Point","coordinates":[21.8665767,49.5770098]}},{"type":"Feature","properties":{"amenity":"pharmacy","opening_hours":"Mo-Fr 08:00-18:00; Sa 08:00-16:00","phone":"13 464 57 33","name:pl":"Omega","name:uk":"Omega","name:en":"Omega"},"geometry":{"type":"Point","coordinates":[22.0185998,49.5834486]}},{"type":"Feature","properties":{"addr:city":"Targowiska","addr:housenumber":"12","addr:postcode":"38-430","addr:street":"Armii Krajowej","amenity":"pharmacy","name:pl":"","name:uk":"","name:en":""},"geometry":{"type":"Point","coordinates":[21.8230443,49.6371442]}},{"type":"Feature","properties":{"addr:city":"\u0141\u0119\u017cany","addr:housenumber":"3","addr:postcode":"38-423","addr:street":"Jana Paw\u0142a II","amenity":"pharmacy","healthcare":"pharmacy","name:pl":"","name:uk":"","name:en":""},"geometry":{"type":"Point","coordinates":[21.8104832,49.6468991]}},{"type":"Feature","properties":{"addr:city":"Wr\u00f3blik Szlachecki","addr:housenumber":"12a","addr:postcode":"38-523","addr:street":"Kolejowa","amenity":"pharmacy","name:pl":"Remedium","name:uk":"Remedium","name:en":"Remedium"},"geometry":{"type":"Point","coordinates":[21.8756446,49.6146346]}},{"type":"Feature","properties":{"addr:city":"Kro\u015bcienko Wy\u017cne","addr:housenumber":"6","addr:postcode":"38-422","addr:street":"Szkolna","amenity":"pharmacy","opening_hours":"Mo-Fr 08:00-19:00; Sa 08:00-15:00","phone":"134200272","name:pl":"Werbena Bis","name:uk":"Werbena Bis","name:en":"Werbena Bis"},"geometry":{"type":"Point","coordinates":[21.8271821,49.6750319]}},{"type":"Feature","properties":{"addr:city":"Korczyna","addr:housenumber":"18","addr:postcode":"38-420","addr:street":"Rynek","amenity":"pharmacy","opening_hours":"Mo-Sa 07:30-20:00;","phone":"134354373","name:pl":"Apteka Korczy\u0144ska Im. Bpa J.S.Pelczara","name:uk":"Apteka Korczy\u0144ska Im. Bpa J.S.Pelczara","name:en":"Apteka Korczy\u0144ska Im. Bpa J.S.Pelczara"},"geometry":{"type":"Point","coordinates":[21.8114991,49.7141635]}},{"type":"Feature","properties":{"amenity":"pharmacy","name:pl":"","name:uk":"","name:en":""},"geometry":{"type":"Point","coordinates":[21.8903437,49.6680379]}},{"type":"Feature","properties":{"amenity":"pharmacy","opening_hours":"Mo-Fr 08:00-18:00; Sa 08:00-13:30","phone":"134392132","name:pl":"Pod D\u0119bami","name:uk":"Pod D\u0119bami","name:en":"Pod D\u0119bami"},"geometry":{"type":"Point","coordinates":[21.8935585,49.6696181]}},{"type":"Feature","properties":{"addr:city":"Hacz\u00f3w","addr:housenumber":"84A","addr:postcode":"36-213","amenity":"pharmacy","name:pl":"Pod D\u0119bami","name:uk":"Pod D\u0119bami","name:en":"Pod D\u0119bami"},"geometry":{"type":"Point","coordinates":[21.8954518,49.6713966]}},{"type":"Feature","properties":{"addr:housenumber":"53","addr:place":"Kombornia","addr:postcode":"38-420","amenity":"pharmacy","phone":"13 432 56 07","name:pl":"Punkt Apteczny","name:uk":"Punkt Apteczny","name:en":"Punkt Apteczny"},"geometry":{"type":"Point","coordinates":[21.8794547,49.7098535]}},{"type":"Feature","properties":{"amenity":"pharmacy","name:pl":"Punkt Apteczny","name:uk":"Punkt Apteczny","name:en":"Punkt Apteczny"},"geometry":{"type":"Point","coordinates":[21.9013389,49.6975006]}},{"type":"Feature","properties":{"addr:city":"Trze\u015bni\u00f3w","addr:housenumber":"87a","addr:postcode":"36-212","amenity":"pharmacy","name:pl":"","name:uk":"","name:en":""},"geometry":{"type":"Point","coordinates":[21.9460382,49.6449669]}},{"type":"Feature","properties":{"amenity":"pharmacy","dispensing":"yes","healthcare":"pharmacy","name:pl":"","name:uk":"","name:en":""},"geometry":{"type":"Point","coordinates":[21.9838615,49.6526213]}},{"type":"Feature","properties":{"addr:city":"Brzoz\u00f3w","amenity":"pharmacy","name:pl":"Apteka Cefarm","name:uk":"Apteka Cefarm","name:en":"Apteka Cefarm"},"geometry":{"type":"Point","coordinates":[22.0196717,49.69586]}},{"type":"Feature","properties":{"addr:city":"Brzoz\u00f3w","addr:housenumber":"22","addr:postcode":"36-200","addr:street":"Adama Mickiewicza","amenity":"pharmacy","name:pl":"Apteka Rodzinna","name:uk":"Apteka Rodzinna","name:en":"Apteka Rodzinna"},"geometry":{"type":"Point","coordinates":[22.0188969,49.6947218]}},{"type":"Feature","properties":{"addr:city":"Brzoz\u00f3w","addr:housenumber":"12","addr:postcode":"36-200","addr:street":"J\u00f3zefa Bema","amenity":"pharmacy","name:pl":"Panax","name:uk":"Panax","name:en":"Panax"},"geometry":{"type":"Point","coordinates":[22.0159072,49.701858]}},{"type":"Feature","properties":{"addr:city":"Stara Wie\u015b","addr:housenumber":"621A","addr:postcode":"36-200","amenity":"pharmacy","name:pl":"Danfarm Punkt Apteczny Stara Wie\u015b","name:uk":"Danfarm Punkt Apteczny Stara Wie\u015b","name:en":"Danfarm Punkt Apteczny Stara Wie\u015b"},"geometry":{"type":"Point","coordinates":[22.0119757,49.7177121]}},{"type":"Feature","properties":{"amenity":"pharmacy","opening_hours":"Mo-Fr 08:15-14:00; Sa 08:15-12:00","name:pl":"Punkt apteczny","name:uk":"Punkt apteczny","name:en":"Punkt apteczny"},"geometry":{"type":"Point","coordinates":[22.0454112,49.5773113]}},{"type":"Feature","properties":{"amenity":"pharmacy","opening_hours":"Mo-Fr 08:00-19:00; Sa 08:00-13:00","phone":"13 467 26 88","name:pl":"Punkt apteczny","name:uk":"Punkt apteczny","name:en":"Punkt apteczny"},"geometry":{"type":"Point","coordinates":[22.0741779,49.5659913]}},{"type":"Feature","properties":{"amenity":"hospital","name:pl":"Szpitalny Oddzia\u0142 Ratunkowy","name:uk":"\u0412\u0456\u0434\u0434\u0456\u043b\u0435\u043d\u043d\u044f \u043b\u0456\u043a\u0430\u0440\u0441\u044c\u043a\u043e\u0457 \u043d\u0435\u0432\u0456\u0434\u043a\u043b\u0430\u0434\u043d\u043e\u0457 \u0434\u043e\u043f\u043e\u043c\u043e\u0433\u0438","name:en":"Szpitalny Oddzia\u0142 Ratunkowy"},"geometry":{"type":"Point","coordinates":[22.1994122,49.5518939]}},{"type":"Feature","properties":{"amenity":"pharmacy","dispensing":"yes","name:pl":"Pogodna","name:uk":"Pogodna","name:en":"Pogodna"},"geometry":{"type":"Point","coordinates":[22.1981419,49.5549921]}},{"type":"Feature","properties":{"addr:city":"Sanok","addr:housenumber":"24","addr:postcode":"38-500","addr:street":"Konarskiego","blood:whole":"yes","description":"Godziny otwarcia to godziny pracy rejestracji dla dawc\u00f3w.","email":"sekretariat@rckk.rzeszow.pl","healthcare":"blood_donation","opening_hours":"Mo-Fr 07:00-11:30","operator":"Regionalne Centrum Krwiodawstwa i Krwiolecznictwa w Rzeszowie","phone":"+48 13 464-33-53","website":"https://www.rckk.rzeszow.pl/gdzie-oddac-krew/terenowe-oddzialy","name:pl":"RCKiK w Rzeszowie TO Sanok","name:uk":"\u041c\u0456\u0441\u0446\u0435\u0432\u0435 \u0412\u0456\u0434\u0434\u0456\u043b\u0435\u043d\u043d\u044f \u0420\u0435\u0433\u0456\u043e\u043d\u0430\u043b\u044c\u043d\u043e\u0457 \u0421\u0442\u0430\u043d\u0446\u0456\u0457 \u041f\u0435\u0440\u0435\u043b\u0438\u0432\u0430\u043d\u043d\u044f \u0442\u0430 \u041b\u0456\u043a\u0443\u0432\u0430\u043d\u043d\u044f \u043a\u0440\u043e\u0432\u0456 \u0421\u0430\u043d\u043e\u043a","name:en":"RCKiK w Rzeszowie TO Sanok"},"geometry":{"type":"Point","coordinates":[22.202191,49.5521501]}},{"type":"Feature","properties":{"amenity":"pharmacy","dispensing":"yes","name:pl":"Apteka","name:uk":"Apteka","name:en":"Apteka"},"geometry":{"type":"Point","coordinates":[22.2023864,49.5592523]}},{"type":"Feature","properties":{"amenity":"pharmacy","dispensing":"yes","name:pl":"Apteka","name:uk":"Apteka","name:en":"Apteka"},"geometry":{"type":"Point","coordinates":[22.2016462,49.5600407]}},{"type":"Feature","properties":{"amenity":"pharmacy","name:pl":"Spo\u0142eczna","name:uk":"Spo\u0142eczna","name:en":"Spo\u0142eczna"},"geometry":{"type":"Point","coordinates":[22.2033134,49.5599488]}},{"type":"Feature","properties":{"addr:city":"Sanok","addr:housenumber":"9","addr:postcode":"38-500","addr:street":"Rzemie\u015blnicza","amenity":"pharmacy","dispensing":"yes","name:pl":"Omega","name:uk":"Omega","name:en":"Omega"},"geometry":{"type":"Point","coordinates":[22.2133797,49.5479671]}},{"type":"Feature","properties":{"amenity":"bus_station","bus":"yes","public_transport":"station","name:pl":"Sanok","name:uk":"\u0421\u0430\u043d\u043e\u043a","name:en":"Sanok"},"geometry":{"type":"Point","coordinates":[22.2105543,49.5524727]}},{"type":"Feature","properties":{"amenity":"pharmacy","brand":"Dr. Max","brand:wikidata":"Q56317371","dispensing":"yes","healthcare":"pharmacy","opening_hours":"Mo-Fr 07:00-19:00; Sa 07:00-16:00; Su,PH off","name:pl":"Dr. Max","name:uk":"Dr. Max","name:en":"Dr. Max"},"geometry":{"type":"Point","coordinates":[22.2039866,49.5611631]}},{"type":"Feature","properties":{"amenity":"pharmacy","healthcare":"pharmacy","name:pl":"","name:uk":"","name:en":""},"geometry":{"type":"Point","coordinates":[22.208947,49.5588442]}},{"type":"Feature","properties":{"amenity":"pharmacy","healthcare":"pharmacy","name:pl":"Pod Or\u0142em","name:uk":"Pod Or\u0142em","name:en":"Pod Or\u0142em"},"geometry":{"type":"Point","coordinates":[22.2053255,49.560072]}},{"type":"Feature","properties":{"amenity":"pharmacy","dispensing":"yes","name:pl":"Apteka","name:uk":"Apteka","name:en":"Apteka"},"geometry":{"type":"Point","coordinates":[22.2178549,49.5486273]}},{"type":"Feature","properties":{"amenity":"pharmacy","dispensing":"yes","name:pl":"Pod Kasztanem","name:uk":"Pod Kasztanem","name:en":"Pod Kasztanem"},"geometry":{"type":"Point","coordinates":[22.2290154,49.5533938]}},{"type":"Feature","properties":{"amenity":"pharmacy","opening_hours":"Mo-Fr 08:00-18:00; Sa 08:00-14:00","phone":"134631828","name:pl":"Panakeja","name:uk":"Panakeja","name:en":"Panakeja"},"geometry":{"type":"Point","coordinates":[22.1567684,49.5705106]}},{"type":"Feature","properties":{"amenity":"pharmacy","name:pl":"C.H Panorama","name:uk":"C.H Panorama","name:en":"C.H Panorama"},"geometry":{"type":"Point","coordinates":[22.1803151,49.564917]}},{"type":"Feature","properties":{"amenity":"pharmacy","dispensing":"yes","healthcare":"pharmacy","name:pl":"Apteka","name:uk":"Apteka","name:en":"Apteka"},"geometry":{"type":"Point","coordinates":[22.2003504,49.5670629]}},{"type":"Feature","properties":{"amenity":"pharmacy","dispensing":"yes","name:pl":"Omega","name:uk":"Omega","name:en":"Omega"},"geometry":{"type":"Point","coordinates":[22.1952942,49.5706002]}},{"type":"Feature","properties":{"amenity":"pharmacy","dispensing":"yes","name:pl":"Apteka","name:uk":"Apteka","name:en":"Apteka"},"geometry":{"type":"Point","coordinates":[22.1977287,49.5757454]}},{"type":"Feature","properties":{"amenity":"pharmacy","dispensing":"yes","healthcare":"pharmacy","name:pl":"Apteka","name:uk":"Apteka","name:en":"Apteka"},"geometry":{"type":"Point","coordinates":[22.2064409,49.5668438]}},{"type":"Feature","properties":{"amenity":"pharmacy","name:pl":"","name:uk":"","name:en":""},"geometry":{"type":"Point","coordinates":[22.2104567,49.5741318]}},{"type":"Feature","properties":{"addr:city":"Grabownica Starze\u0144ska","addr:housenumber":"396","addr:postcode":"36-207","amenity":"pharmacy","name:pl":"","name:uk":"","name:en":""},"geometry":{"type":"Point","coordinates":[22.0795184,49.6568927]}},{"type":"Feature","properties":{"addr:city":"Brzoz\u00f3w","addr:housenumber":"18","addr:postcode":"36-200","addr:street":"Ks. J.Bielawskiego","amenity":"pharmacy","name:pl":"","name:uk":"","name:en":""},"geometry":{"type":"Point","coordinates":[22.0247856,49.6925413]}},{"type":"Feature","properties":{"addr:city":"Humniska","addr:housenumber":"53","addr:postcode":"36-206","amenity":"pharmacy","name:pl":"Remedium","name:uk":"Remedium","name:en":"Remedium"},"geometry":{"type":"Point","coordinates":[22.0347269,49.6880183]}},{"type":"Feature","properties":{"amenity":"pharmacy","name:pl":"Punkt Lekarski","name:uk":"Punkt Lekarski","name:en":"Punkt Lekarski"},"geometry":{"type":"Point","coordinates":[22.0489637,49.676652]}},{"type":"Feature","properties":{"amenity":"pharmacy","name:pl":"Apteka","name:uk":"Apteka","name:en":"Apteka"},"geometry":{"type":"Point","coordinates":[22.0526564,49.6756663]}},{"type":"Feature","properties":{"addr:city":"Brzoz\u00f3w","amenity":"pharmacy","name:pl":"","name:uk":"","name:en":""},"geometry":{"type":"Point","coordinates":[22.0214644,49.6949078]}},{"type":"Feature","properties":{"amenity":"pharmacy","dispensing":"yes","name:pl":"Apteka Omega","name:uk":"Apteka Omega","name:en":"Apteka Omega"},"geometry":{"type":"Point","coordinates":[22.0225859,49.6971292]}},{"type":"Feature","properties":{"addr:city":"Brzoz\u00f3w","addr:housenumber":"5a","addr:postcode":"36-200","addr:street":"Plac Grunwaldzki","amenity":"pharmacy","opening_hours":"pn-pt:7.00-21.00 sobota:8.00-21.00 niedziela:10.00-19.00","operator":"Zdrowe Ceny","phone":"+48 13 30 68 444","website":"http://www.zdroweceny.pl/","name:pl":"Zdrowe Ceny","name:uk":"Zdrowe Ceny","name:en":"Zdrowe Ceny"},"geometry":{"type":"Point","coordinates":[22.0214983,49.6940967]}},{"type":"Feature","properties":{"addr:city":"Brzoz\u00f3w","addr:housenumber":"4","addr:postcode":"36-200","addr:street":"Juliusza S\u0142owackiego","amenity":"pharmacy","dispensing":"yes","healthcare":"pharmacy","opening_hours":"Mo-Fr 09:00-17:00","opening_hours:covid19":"same","name:pl":"Apteka Rodzinna","name:uk":"Apteka Rodzinna","name:en":"Apteka Rodzinna"},"geometry":{"type":"Point","coordinates":[22.0203748,49.6952123]}},{"type":"Feature","properties":{"addr:city":"Brzoz\u00f3w","addr:housenumber":"12","addr:postcode":"36-200","addr:street":"ks. J\u00f3zefa Bielawskiego","amenity":"pharmacy","name:pl":"\"Apteka Cef@Rm 36,6\"","name:uk":"\"Apteka Cef@Rm 36,6\"","name:en":"\"Apteka Cef@Rm 36,6\""},"geometry":{"type":"Point","coordinates":[22.0227119,49.6931975]}},{"type":"Feature","properties":{"addr:city":"Brzoz\u00f3w","addr:housenumber":"2","addr:postcode":"36-200","addr:street":"Podwale","amenity":"pharmacy","name:pl":"\"Apteka Cef@Rm 36,6\"","name:uk":"\"Apteka Cef@Rm 36,6\"","name:en":"\"Apteka Cef@Rm 36,6\""},"geometry":{"type":"Point","coordinates":[22.0215467,49.6951072]}},{"type":"Feature","properties":{"addr:city":"Brzoz\u00f3w","addr:housenumber":"9","addr:postcode":"36-200","addr:street":"Adama Mickiewicza","amenity":"pharmacy","name:pl":"Pod Ratuszem","name:uk":"Pod Ratuszem","name:en":"Pod Ratuszem"},"geometry":{"type":"Point","coordinates":[22.0218822,49.6968164]}},{"type":"Feature","properties":{"amenity":"pharmacy","mobile":"782 104 782","opening_hours":"Mo-Fr 08:00-17:00","name:pl":"Punkt Apteczny Danfarm","name:uk":"Punkt Apteczny Danfarm","name:en":"Punkt Apteczny Danfarm"},"geometry":{"type":"Point","coordinates":[22.1062014,49.6771472]}},{"type":"Feature","properties":{"amenity":"pharmacy","dispensing":"yes","healthcare":"pharmacy","name:pl":"","name:uk":"","name:en":""},"geometry":{"type":"Point","coordinates":[22.1462226,49.6974629]}},{"type":"Feature","properties":{"addr:housenumber":"337","addr:place":"Lutcza","addr:postcode":"38-112","amenity":"pharmacy","email":"lutcza@apteka-zielona.pl","opening_hours":"Mo 09:00-18:00; Tu 09:00-15:00; We 12:00-18:00; Th 09:00-15:00; Fr 09:00-18:00","phone":"+48 17 7462882","name:pl":"Apteka PANAX","name:uk":"Apteka PANAX","name:en":"Apteka PANAX"},"geometry":{"type":"Point","coordinates":[21.8727457,49.8069091]}},{"type":"Feature","properties":{"addr:city":"Jasienica Rosielna","addr:housenumber":"216","addr:postcode":"36-220","amenity":"pharmacy","name:pl":"Apteka Omega","name:uk":"Apteka Omega","name:en":"Apteka Omega"},"geometry":{"type":"Point","coordinates":[21.9349052,49.7494795]}},{"type":"Feature","properties":{"addr:city":"Blizne","addr:housenumber":"471","addr:postcode":"36-221","amenity":"pharmacy","name:pl":"","name:uk":"","name:en":""},"geometry":{"type":"Point","coordinates":[21.9806147,49.7481233]}},{"type":"Feature","properties":{"amenity":"pharmacy","dispensing":"yes","healthcare":"pharmacy","opening_hours":"Mo-Fr 08:00-20:00; Sa 08:00-16:00","phone":"134347550","name:pl":"Arjed","name:uk":"Arjed","name:en":"Arjed"},"geometry":{"type":"Point","coordinates":[21.943202,49.7883682]}},{"type":"Feature","properties":{"addr:housenumber":"139","addr:place":"Niebylec","addr:postcode":"38-114","amenity":"pharmacy","opening_hours":"Mo-Fr 08:00-15:00; Sa 08:00-12:30","name:pl":"Apteka","name:uk":"Apteka","name:en":"Apteka"},"geometry":{"type":"Point","coordinates":[21.9038177,49.8557335]}},{"type":"Feature","properties":{"amenity":"bus_station","name:pl":"PKS Niebylec","name:uk":"\u0410\u0432\u0442\u043e\u0432\u043e\u043a\u0437\u0430\u043b \u041d\u0435\u0431\u0438\u043b\u0435\u0446\u044c","name:en":"PKS Niebylec"},"geometry":{"type":"Point","coordinates":[21.9035157,49.8559247]}},{"type":"Feature","properties":{"addr:housenumber":"67","addr:place":"Niebylec","addr:postcode":"38-114","amenity":"pharmacy","opening_hours":"Mo-Fr 08:00-15:00;","name:pl":"APTEKA PRYWATNA S.C. BOGUS\u0141AWA SURMACZ-Z\u0141OTEK BO\u017bENA POLITY\u0143SKA","name:uk":"APTEKA PRYWATNA S.C. BOGUS\u0141AWA SURMACZ-Z\u0141OTEK BO\u017bENA POLITY\u0143SKA","name:en":"APTEKA PRYWATNA S.C. BOGUS\u0141AWA SURMACZ-Z\u0141OTEK BO\u017bENA POLITY\u0143SKA"},"geometry":{"type":"Point","coordinates":[21.9119082,49.8561248]}},{"type":"Feature","properties":{"addr:housenumber":"4c","addr:place":"Ma\u0142\u00f3wka","addr:postcode":"38-114","amenity":"pharmacy","opening_hours":"Mo-Fr 08:00-19:00; Sa 08:00-14:00","name:pl":"Punkt apteczny","name:uk":"Punkt apteczny","name:en":"Punkt apteczny"},"geometry":{"type":"Point","coordinates":[21.9026508,49.8611857]}},{"type":"Feature","properties":{"amenity":"pharmacy","opening_hours":"Mo-Fr 08:30-18:00; Sa 08:30-12:00","phone":"17870300","name:pl":"Apteka 'U Galena'","name:uk":"Apteka 'U Galena'","name:en":"Apteka 'U Galena'"},"geometry":{"type":"Point","coordinates":[21.9361755,49.9244325]}},{"type":"Feature","properties":{"addr:city":"Przysietnica","addr:housenumber":"676","addr:postcode":"36-200","amenity":"pharmacy","name:pl":"\"Apteka 'Omega'\"","name:uk":"\"Apteka 'Omega'\"","name:en":"\"Apteka 'Omega'\""},"geometry":{"type":"Point","coordinates":[22.0519703,49.7299078]}},{"type":"Feature","properties":{"amenity":"pharmacy","opening_hours":"Mo 08:30-15:30; Tu 11:00-18:00; We 08:30-15:30; Th 11:00-18:00; Fr 08:30-15:30","phone":"13 430 45 90","name:pl":"Punkt apteczny Arjed","name:uk":"Punkt apteczny Arjed","name:en":"Punkt apteczny Arjed"},"geometry":{"type":"Point","coordinates":[22.0252392,49.7712091]}},{"type":"Feature","properties":{"amenity":"pharmacy","dispensing":"yes","healthcare":"pharmacy","name:pl":"","name:uk":"","name:en":""},"geometry":{"type":"Point","coordinates":[22.1165233,49.7516332]}},{"type":"Feature","properties":{"amenity":"pharmacy","name:pl":"Punkt apteczny","name:uk":"Punkt apteczny","name:en":"Punkt apteczny"},"geometry":{"type":"Point","coordinates":[22.0986369,49.8016151]}},{"type":"Feature","properties":{"amenity":"pharmacy","opening_hours":"Mo-Fr 08:00-16:00; Sa 09:00-13:00","phone":"134397209","name:pl":"Punkt apteczny","name:uk":"Punkt apteczny","name:en":"Punkt apteczny"},"geometry":{"type":"Point","coordinates":[22.206915,49.7743428]}},{"type":"Feature","properties":{"amenity":"pharmacy","dispensing":"yes","name:pl":"","name:uk":"","name:en":""},"geometry":{"type":"Point","coordinates":[22.1000994,49.8859886]}},{"type":"Feature","properties":{"amenity":"pharmacy","email":"danfarmharta@wp.pl","opening_hours":"Mo-Fr 08:00-18:00; Sa 08:00-14:00","phone":"17 230 52 33","name:pl":"Danfarm Punkt Apteczny","name:uk":"Danfarm Punkt Apteczny","name:en":"Danfarm Punkt Apteczny"},"geometry":{"type":"Point","coordinates":[22.1819919,49.8706802]}},{"type":"Feature","properties":{"amenity":"pharmacy","name:pl":"Apteka","name:uk":"Apteka","name:en":"Apteka"},"geometry":{"type":"Point","coordinates":[22.1633309,49.9243003]}},{"type":"Feature","properties":{"amenity":"pharmacy","name:pl":"Punkt apteczny","name:uk":"Punkt apteczny","name:en":"Punkt apteczny"},"geometry":{"type":"Point","coordinates":[22.1993062,49.9092819]}},{"type":"Feature","properties":{"addr:city":"Zag\u00f3rz","addr:city:simc":"0953881","addr:housenumber":"12","addr:postcode":"38-540","addr:street":"J\u00f3zefa Pi\u0142sudskiego","amenity":"pharmacy","healthcare":"pharmacy","source:addr":"emuia.gugik.gov.pl","name:pl":"Omega Bis","name:uk":"Omega Bis","name:en":"Omega Bis"},"geometry":{"type":"Point","coordinates":[22.2658131,49.5134207]}},{"type":"Feature","properties":{"amenity":"pharmacy","healthcare":"pharmacy","name:pl":"D\u0142ugosz-Cholewka Ulana","name:uk":"D\u0142ugosz-Cholewka Ulana","name:en":"D\u0142ugosz-Cholewka Ulana"},"geometry":{"type":"Point","coordinates":[22.2650486,49.5127511]}},{"type":"Feature","properties":{"addr:city":"Zag\u00f3rz","addr:housenumber":"5","addr:postcode":"38-540","addr:street":"Targowa","amenity":"social_facility","social_facility":"outreach","website":"www.mgopszagorz.naszops.pl","name:pl":"Miejski Gminny O\u015brodek Pomocy Spo\u0142ecznej","name:uk":"\u041c\u0456\u0441\u0446\u0435\u0432\u043e-\u041a\u043e\u043c\u0443\u043d\u0430\u043b\u044c\u043d\u0438\u0439 \u0426\u0435\u043d\u0442\u0440 \u0421\u043e\u0446\u0456\u0430\u043b\u044c\u043d\u043e\u0457 \u0414\u043e\u043f\u043e\u043c\u043e\u0433\u0438","name:en":"Miejski Gminny O\u015brodek Pomocy Spo\u0142ecznej"},"geometry":{"type":"Point","coordinates":[22.2685398,49.5140798]}},{"type":"Feature","properties":{"amenity":"pharmacy","mobile":"603 773 799","opening_hours":"Mo-Fr 08:00-16:00","name:pl":"Danfarm Punkt Apteczny","name:uk":"Danfarm Punkt Apteczny","name:en":"Danfarm Punkt Apteczny"},"geometry":{"type":"Point","coordinates":[22.3673084,49.5771843]}},{"type":"Feature","properties":{"amenity":"pharmacy","opening_hours":"Mo-Fr 09:00-14:00","phone":"134627285","name:pl":"Panaceum Punkt Apteczny","name:uk":"Panaceum Punkt Apteczny","name:en":"Panaceum Punkt Apteczny"},"geometry":{"type":"Point","coordinates":[22.2726184,49.6192463]}},{"type":"Feature","properties":{"addr:city":"Bircza","addr:housenumber":"3","addr:postcode":"37-740","addr:street":"Rynek","amenity":"pharmacy","dispensing":"yes","healthcare":"pharmacy","opening_hours":"Mo-Fr 09:00-18:00","name:pl":"","name:uk":"","name:en":""},"geometry":{"type":"Point","coordinates":[22.4801439,49.6916567]}},{"type":"Feature","properties":{"amenity":"pharmacy","name:pl":"","name:uk":"","name:en":""},"geometry":{"type":"Point","coordinates":[22.234234,49.8143186]}},{"type":"Feature","properties":{"amenity":"pharmacy","name:pl":"Apteka Rodzinna","name:uk":"Apteka Rodzinna","name:en":"Apteka Rodzinna"},"geometry":{"type":"Point","coordinates":[22.235014,49.8227636]}},{"type":"Feature","properties":{"addr:city":"Jawornik Polski","addr:housenumber":"215","addr:postcode":"37-232","amenity":"pharmacy","opening_hours":"Mo-Fr 08:00-15:00; Sa 09:00-12:00","phone":"166514177","name:pl":"Kraina Lek\u00f3w","name:uk":"Kraina Lek\u00f3w","name:en":"Kraina Lek\u00f3w"},"geometry":{"type":"Point","coordinates":[22.2844952,49.8895099]}},{"type":"Feature","properties":{"addr:city":"Dubiecko","addr:housenumber":"41","addr:postcode":"37-750","addr:street":"Przemyska","amenity":"pharmacy","dispensing":"yes","healthcare":"pharmacy","opening_hours":"Mo-Fr 07:30-20:00; Sa 08:00-18:00; Su 08:00-15:00","name:pl":"Animed","name:uk":"Animed","name:en":"Animed"},"geometry":{"type":"Point","coordinates":[22.3909212,49.8257839]}},{"type":"Feature","properties":{"addr:city":"Dubiecko","addr:housenumber":"16","addr:postcode":"37-750","addr:street":"Przemyska","amenity":"pharmacy","healthcare":"pharmacy","opening_hours":"Mo-Fr 08:00-18:00; Sa 08:00-13:00; ","name:pl":"Lafarma","name:uk":"Lafarma","name:en":"Lafarma"},"geometry":{"type":"Point","coordinates":[22.393834,49.8242071]}},{"type":"Feature","properties":{"addr:housenumber":"67","addr:place":"Krzywcza","amenity":"pharmacy","dispensing":"yes","healthcare":"pharmacy","opening_hours":"Mo-Fr 08:00-15:00; Sa 08:00-13:00","name:pl":"","name:uk":"","name:en":""},"geometry":{"type":"Point","coordinates":[22.5439935,49.7980974]}},{"type":"Feature","properties":{"addr:city":"Pruchnik","addr:housenumber":"2","addr:postcode":"37-560","addr:street":"S\u0142oneczna","amenity":"pharmacy","opening_hours":"Mo-Fr 08:00-18:00; Sa 08:00-13:00","name:pl":"Medex","name:uk":"Medex","name:en":"Medex"},"geometry":{"type":"Point","coordinates":[22.5115759,49.9072625]}},{"type":"Feature","properties":{"amenity":"pharmacy","healthcare":"pharmacy","name:pl":"Reizer Tadeusz. Apteka","name:uk":"Reizer Tadeusz. Apteka","name:en":"Reizer Tadeusz. Apteka"},"geometry":{"type":"Point","coordinates":[22.5170018,49.9067965]}},{"type":"Feature","properties":{"addr:city":"Pruchnik","addr:postcode":"37-560","amenity":"pharmacy","opening_hours":"Mo-Fr 07:30-19:00; Sa 08:00-13:00","name:pl":"","name:uk":"","name:en":""},"geometry":{"type":"Point","coordinates":[22.5123969,49.9048536]}},{"type":"Feature","properties":{"amenity":"pharmacy","name:pl":"Punkt apteczny","name:uk":"Punkt apteczny","name:en":"Pharmacy"},"geometry":{"type":"Point","coordinates":[22.6925513,49.2535683]}},{"type":"Feature","properties":{"amenity":"hospital","name:pl":"\u0422\u0443\u0440\u043a\u0456\u0432\u0441\u044c\u043a\u0430 \u043a\u043e\u043c\u0443\u043d\u0430\u043b\u044c\u043d\u0430 \u0446\u0435\u043d\u0442\u0440\u0430\u043b\u044c\u043d\u0430 \u043c\u0456\u0441\u044c\u043a\u0430 \u043b\u0456\u043a\u0430\u0440\u043d\u044f","name:uk":"\u0422\u0443\u0440\u043a\u0456\u0432\u0441\u044c\u043a\u0430 \u043a\u043e\u043c\u0443\u043d\u0430\u043b\u044c\u043d\u0430 \u0446\u0435\u043d\u0442\u0440\u0430\u043b\u044c\u043d\u0430 \u043c\u0456\u0441\u044c\u043a\u0430 \u043b\u0456\u043a\u0430\u0440\u043d\u044f","name:en":"\u0422\u0443\u0440\u043a\u0456\u0432\u0441\u044c\u043a\u0430 \u043a\u043e\u043c\u0443\u043d\u0430\u043b\u044c\u043d\u0430 \u0446\u0435\u043d\u0442\u0440\u0430\u043b\u044c\u043d\u0430 \u043c\u0456\u0441\u044c\u043a\u0430 \u043b\u0456\u043a\u0430\u0440\u043d\u044f"},"geometry":{"type":"Point","coordinates":[23.0197298,49.1631487]}},{"type":"Feature","properties":{"amenity":"hospital","name:pl":"\u0422\u0443\u0440\u043a\u0456\u0432\u0441\u044c\u043a\u0430 \u043a\u043e\u043c\u0443\u043d\u0430\u043b\u044c\u043d\u0430 \u0446\u0435\u043d\u0442\u0440\u0430\u043b\u044c\u043d\u0430 \u0440\u0430\u0439\u043e\u043d\u043d\u0430 \u043b\u0456\u043a\u0430\u0440\u043d\u044f","name:uk":"\u0422\u0443\u0440\u043a\u0456\u0432\u0441\u044c\u043a\u0430 \u043a\u043e\u043c\u0443\u043d\u0430\u043b\u044c\u043d\u0430 \u0446\u0435\u043d\u0442\u0440\u0430\u043b\u044c\u043d\u0430 \u0440\u0430\u0439\u043e\u043d\u043d\u0430 \u043b\u0456\u043a\u0430\u0440\u043d\u044f","name:en":"\u0422\u0443\u0440\u043a\u0456\u0432\u0441\u044c\u043a\u0430 \u043a\u043e\u043c\u0443\u043d\u0430\u043b\u044c\u043d\u0430 \u0446\u0435\u043d\u0442\u0440\u0430\u043b\u044c\u043d\u0430 \u0440\u0430\u0439\u043e\u043d\u043d\u0430 \u043b\u0456\u043a\u0430\u0440\u043d\u044f"},"geometry":{"type":"Point","coordinates":[23.0547481,49.1559409]}},{"type":"Feature","properties":{"amenity":"pharmacy","opening_hours":"Mo-Fr 08:00-15:00; Sa 08:00-13:00","name:pl":"Punkt apteczny","name:uk":"Punkt apteczny","name:en":"Punkt apteczny"},"geometry":{"type":"Point","coordinates":[22.6689982,49.324045]}},{"type":"Feature","properties":{"amenity":"hospital","healthcare":"hospital","name:pl":"\u041c\u0435\u0434 \u041f\u0443\u043d\u043a\u0442","name:uk":"\u041c\u0435\u0434 \u041f\u0443\u043d\u043a\u0442","name:en":"\u041c\u0435\u0434 \u041f\u0443\u043d\u043a\u0442"},"geometry":{"type":"Point","coordinates":[22.7634588,49.5068175]}},{"type":"Feature","properties":{"amenity":"pharmacy","healthcare":"pharmacy","name:pl":"","name:uk":"","name:en":""},"geometry":{"type":"Point","coordinates":[22.9977378,49.4356701]}},{"type":"Feature","properties":{"addr:postcode":"82000","addr:street":"\u041b\u0435\u0432\u0430 \u0413\u0430\u043b\u0438\u0446\u044c\u043a\u043e\u0433\u043e \u0432\u0443\u043b\u0438\u0446\u044f","amenity":"pharmacy","brand":"\u041f\u043e\u0434\u043e\u0440\u043e\u0436\u043d\u0438\u043a","dispensing":"yes","drive_through":"no","healthcare":"pharmacy","name:pl":"\u041f\u043e\u0434\u043e\u0440\u043e\u0436\u043d\u0438\u043a","name:uk":"\u041f\u043e\u0434\u043e\u0440\u043e\u0436\u043d\u0438\u043a","name:en":"\u041f\u043e\u0434\u043e\u0440\u043e\u0436\u043d\u0438\u043a"},"geometry":{"type":"Point","coordinates":[23.0009326,49.440474]}},{"type":"Feature","properties":{"addr:street":"\u041b\u0435\u0432\u0430 \u0413\u0430\u043b\u0438\u0446\u044c\u043a\u043e\u0433\u043e \u0432\u0443\u043b\u0438\u0446\u044f","amenity":"pharmacy","healthcare":"pharmacy","name:pl":"DS","name:uk":"DS","name:en":"DS"},"geometry":{"type":"Point","coordinates":[23.0018322,49.4413079]}},{"type":"Feature","properties":{"addr:street":"\u041b\u0435\u0432\u0430 \u0413\u0430\u043b\u0438\u0446\u044c\u043a\u043e\u0433\u043e \u0432\u0443\u043b\u0438\u0446\u044f","amenity":"pharmacy","healthcare":"pharmacy","name:pl":"\u0417\u0456","name:uk":"\u0417\u0456","name:en":"\u0417\u0456"},"geometry":{"type":"Point","coordinates":[23.0021121,49.4418459]}},{"type":"Feature","properties":{"amenity":"pharmacy","healthcare":"pharmacy","name:pl":"","name:uk":"","name:en":""},"geometry":{"type":"Point","coordinates":[23.0017642,49.4399823]}},{"type":"Feature","properties":{"amenity":"pharmacy","healthcare":"pharmacy","name:pl":"","name:uk":"","name:en":""},"geometry":{"type":"Point","coordinates":[23.0023124,49.442563]}},{"type":"Feature","properties":{"addr:street":"\u041b\u0435\u0432\u0430 \u0413\u0430\u043b\u0438\u0446\u044c\u043a\u043e\u0433\u043e \u0432\u0443\u043b\u0438\u0446\u044f","amenity":"pharmacy","healthcare":"pharmacy","name:pl":"","name:uk":"","name:en":""},"geometry":{"type":"Point","coordinates":[22.9990809,49.4374064]}},{"type":"Feature","properties":{"amenity":"hospital","phone":"+38 03 269 32656","name:pl":"\u042f\u0441\u0435\u043d\u0438\u0446\u044c\u043a\u0430 \u0434\u0456\u043b\u044c\u043d\u0438\u0447\u043d\u0430 \u043b\u0456\u043a\u0430\u0440\u043d\u044f","name:uk":"\u042f\u0441\u0435\u043d\u0438\u0446\u044c\u043a\u0430 \u0434\u0456\u043b\u044c\u043d\u0438\u0447\u043d\u0430 \u043b\u0456\u043a\u0430\u0440\u043d\u044f","name:en":"\u042f\u0441\u0435\u043d\u0438\u0446\u044c\u043a\u0430 \u0434\u0456\u043b\u044c\u043d\u0438\u0447\u043d\u0430 \u043b\u0456\u043a\u0430\u0440\u043d\u044f"},"geometry":{"type":"Point","coordinates":[23.1841213,49.1764333]}},